{"xml_msg": {"@query": "region=2,area=3,district=59,transaction=584", "supp_cb": null, "atms": {"atm": [{"@id": "1543", "region": "香港", "area": "新界", "district": "大埔", "ob_name": "東亞銀行有限公司", "addr": "香港教育學院中央大樓平台C-P-12室", "supp_tran": {"tran_name": ["現金提款, 轉賬, 結餘查詢, 更改私人密碼及其他基本服務", "強積金", "跨行轉賬", "賬單繳費, 信用卡繳費, 慈善捐款", "PLUS", "JCB", "銀聯", "CIRRUS", "Diners Club", "FISC", "Discover"]}, "currencies": {"currency": "港幣"}, "latitude": "22.46688827905193", "longitude": "114.19378280639648"}, {"@id": "330284", "region": "香港", "area": "新界", "district": "大埔", "ob_name": "東亞銀行有限公司", "addr": "大埔墟寶鄉街62至66號地下", "supp_tran": {"tran_name": ["現金提款, 轉賬, 結餘查詢, 更改私人密碼及其他基本服務", "強積金", "跨行轉賬", "賬單繳費, 信用卡繳費, 慈善捐款", "PLUS", "JCB", "銀聯", "CIRRUS", "FISC", "Diners Club", "Discover"]}, "currencies": {"currency": ["港幣", "人民幣"]}, "latitude": "22.447723", "longitude": "114.16634799999997"}, {"@id": "330283", "region": "香港", "area": "新界", "district": "大埔", "ob_name": "東亞銀行有限公司", "addr": "大埔墟寶鄉街62至66號地下", "supp_tran": {"tran_name": ["現金提款, 轉賬, 結餘查詢, 更改私人密碼及其他基本服務", "強積金", "跨行轉賬", "賬單繳費, 信用卡繳費, 慈善捐款", "PLUS", "JCB", "銀聯", "CIRRUS", "FISC", "Diners Club", "Discover"]}, "currencies": {"currency": ["港幣", "人民幣"]}, "latitude": "22.447723", "longitude": "114.16634799999997"}, {"@id": "330282", "region": "香港", "area": "新界", "district": "大埔", "ob_name": "東亞銀行有限公司", "addr": "大埔墟寶鄉街62至66號地下", "supp_tran": {"tran_name": ["現金提款, 轉賬, 結餘查詢, 更改私人密碼及其他基本服務", "強積金", "跨行轉賬", "賬單繳費, 信用卡繳費, 慈善捐款", "PLUS", "JCB", "銀聯", "CIRRUS", "FISC", "Diners Club", "Discover"]}, "currencies": {"currency": "港幣"}, "latitude": "22.447723", "longitude": "114.16634799999997"}, {"@id": "330281", "region": "香港", "area": "新界", "district": "大埔", "ob_name": "東亞銀行有限公司", "addr": "大埔墟寶鄉街62至66號地下", "supp_tran": {"tran_name": ["現金提款, 轉賬, 結餘查詢, 更改私人密碼及其他基本服務", "強積金", "跨行轉賬", "賬單繳費, 信用卡繳費, 慈善捐款", "PLUS", "JCB", "銀聯", "CIRRUS", "FISC", "Diners Club", "Discover"]}, "currencies": {"currency": "港幣"}, "latitude": "22.447723", "longitude": "114.16634799999997"}, {"@id": "1545", "region": "香港", "area": "新界", "district": "大埔", "ob_name": "東亞銀行有限公司", "addr": "大埔露屏路10號香港教育學院C2019室", "supp_tran": {"tran_name": ["現金提款, 轉賬, 結餘查詢, 更改私人密碼及其他基本服務", "強積金", "跨行轉賬", "賬單繳費, 信用卡繳費, 慈善捐款", "PLUS", "JCB", "銀聯", "CIRRUS", "FISC", "Diners Club", "Discover"]}, "currencies": {"currency": "港幣"}, "latitude": "22.467279902162268", "longitude": "114.19384717941284"}, {"@id": "1547", "region": "香港", "area": "新界", "district": "大埔", "ob_name": "東亞銀行有限公司", "addr": "大埔廣福邨廣福商場平台近K1號舖", "supp_tran": {"tran_name": ["現金提款, 轉賬, 結餘查詢, 更改私人密碼及其他基本服務", "強積金", "跨行轉賬", "賬單繳費, 信用卡繳費, 慈善捐款", "PLUS", "JCB", "銀聯", "CIRRUS", "Diners Club", "FISC", "Discover"]}, "currencies": {"currency": "港幣"}, "latitude": "22.448545197429457", "longitude": "114.17427778244019"}, {"@id": "1549", "region": "香港", "area": "新界", "district": "大埔", "ob_name": "東亞銀行有限公司", "addr": "大埔太和邨太和商場S229E商舖", "supp_tran": {"tran_name": ["現金提款, 轉賬, 結餘查詢, 更改私人密碼及其他基本服務", "強積金", "跨行轉賬", "賬單繳費, 信用卡繳費, 慈善捐款", "PLUS", "JCB", "銀聯", "CIRRUS", "Diners Club", "FISC", "Discover"]}, "currencies": {"currency": "港幣"}, "latitude": "22.45107371236202", "longitude": "114.1615104675293"}]}}}