{"xml_msg": {"@query": "region=2,area=3,district=57,transaction=5", "supp_cb": null, "atms": {"atm": [{"@id": "251734", "region": "香港", "area": "新界", "district": "沙田", "ob_name": "渣打銀行(香港)有限公司", "addr": "新界沙田沙田正街21-27號沙田廣場地下 (L1) 8號舖", "supp_tran": {"tran_name": ["現金提款, 轉賬, 結餘查詢, 更改私人密碼及其他基本服務", "賬單繳費, 信用卡繳費, 慈善捐款", "PLUS", "銀聯", "CIRRUS"]}, "currencies": {"currency": ["港幣", "人民幣"]}, "latitude": "22.383217", "longitude": "114.189429"}, {"@id": "1498", "region": "香港", "area": "新界", "district": "沙田", "ob_name": "渣打銀行(香港)有限公司", "addr": "新界沙田大圍積福街103及105號及大圍道90號地下", "supp_tran": {"tran_name": ["現金提款, 轉賬, 結餘查詢, 更改私人密碼及其他基本服務", "賬單繳費, 信用卡繳費, 慈善捐款", "PLUS", "銀聯", "CIRRUS"]}, "currencies": {"currency": ["港幣", "人民幣"]}, "latitude": "22.374298", "longitude": "114.178426"}, {"@id": "1499", "region": "香港", "area": "新界", "district": "沙田", "ob_name": "渣打銀行(香港)有限公司", "addr": "新界沙田大圍積福街103及105號及大圍道90號地下", "supp_tran": {"tran_name": ["現金提款, 轉賬, 結餘查詢, 更改私人密碼及其他基本服務", "賬單繳費, 信用卡繳費, 慈善捐款", "PLUS", "銀聯", "CIRRUS"]}, "currencies": {"currency": ["港幣", "人民幣"]}, "latitude": "22.374298", "longitude": "114.178426"}, {"@id": "206097", "region": "香港", "area": "新界", "district": "沙田", "ob_name": "渣打銀行(香港)有限公司", "addr": "新界沙田火炭山美街18-24號沙田商業中心1樓3及8A號舖", "supp_tran": {"tran_name": ["現金提款, 轉賬, 結餘查詢, 更改私人密碼及其他基本服務", "賬單繳費, 信用卡繳費, 慈善捐款", "PLUS", "銀聯", "CIRRUS"]}, "currencies": {"currency": ["港幣", "人民幣"]}, "latitude": "22.397407835798304", "longitude": "114.19354133498768"}, {"@id": "1506", "region": "香港", "area": "新界", "district": "沙田", "ob_name": "渣打銀行(香港)有限公司", "addr": "沙田愉翠苑愉翠商場1樓122號舖對面", "supp_tran": {"tran_name": ["現金提款, 轉賬, 結餘查詢, 更改私人密碼及其他基本服務", "賬單繳費, 信用卡繳費, 慈善捐款", "PLUS", "銀聯", "CIRRUS"]}, "currencies": {"currency": ["港幣", "人民幣"]}, "latitude": "22.38184518511197", "longitude": "114.20539140701294"}, {"@id": "1507", "region": "香港", "area": "新界", "district": "沙田", "ob_name": "渣打銀行(香港)有限公司", "addr": "新界沙田馬鞍山錦泰苑錦泰商場地下103號舖側", "supp_tran": {"tran_name": ["現金提款, 轉賬, 結餘查詢, 更改私人密碼及其他基本服務", "賬單繳費, 信用卡繳費, 慈善捐款", "PLUS", "銀聯", "CIRRUS"]}, "currencies": {"currency": ["港幣", "人民幣"]}, "latitude": "22.408633179373865", "longitude": "114.22190576791763"}, {"@id": "1508", "region": "香港", "area": "新界", "district": "沙田", "ob_name": "渣打銀行(香港)有限公司", "addr": "新界沙田大圍顯徑邨顯徑商場B翼地下", "supp_tran": {"tran_name": ["現金提款, 轉賬, 結餘查詢, 更改私人密碼及其他基本服務", "賬單繳費, 信用卡繳費, 慈善捐款", "PLUS", "銀聯", "CIRRUS"]}, "currencies": {"currency": ["港幣", "人民幣"]}, "latitude": "22.363351962233132", "longitude": "114.17191743850708"}, {"@id": "165206", "region": "香港", "area": "新界", "district": "沙田", "ob_name": "渣打銀行(香港)有限公司", "addr": "新界沙田新城市廣場1期2樓222&223號舖", "supp_tran": {"tran_name": ["現金提款, 轉賬, 結餘查詢, 更改私人密碼及其他基本服務", "賬單繳費, 信用卡繳費, 慈善捐款", "PLUS", "銀聯", "CIRRUS"]}, "currencies": {"currency": ["港幣", "人民幣"]}, "latitude": "22.3796216", "longitude": "114.18746480000004"}, {"@id": "1493", "region": "香港", "area": "新界", "district": "沙田", "ob_name": "渣打銀行(香港)有限公司", "addr": "新界沙田沙田正街21-27號沙田廣場地下 (L1) 8號舖", "supp_tran": {"tran_name": ["現金提款, 轉賬, 結餘查詢, 更改私人密碼及其他基本服務", "賬單繳費, 信用卡繳費, 慈善捐款", "PLUS", "銀聯", "CIRRUS"]}, "currencies": {"currency": ["港幣", "人民幣"]}, "latitude": "22.382916605548477", "longitude": "114.18914794921875"}, {"@id": "1479", "region": "香港", "area": "新界", "district": "沙田", "ob_name": "中國建設銀行(亞洲)股份有限公司", "addr": "沙田正街21-27號沙田廣場一樓5號舖", "supp_tran": {"tran_name": ["現金提款, 轉賬, 結餘查詢, 更改私人密碼及其他基本服務", "跨行轉賬", "賬單繳費, 信用卡繳費, 慈善捐款", "PLUS", "銀聯"]}, "currencies": {"currency": ["港幣", "人民幣"]}, "latitude": "22.382916605548477", "longitude": "114.18910503387451"}, {"@id": "1463", "region": "香港", "area": "新界", "district": "沙田", "ob_name": "中國銀行(香港)有限公司", "addr": "沙田馬場-會員席正門入口", "supp_tran": {"tran_name": ["現金提款, 轉賬, 結餘查詢, 更改私人密碼及其他基本服務", "強積金", "賬單繳費, 信用卡繳費, 慈善捐款", "PLUS", "JCB", "銀聯", "CIRRUS", "FISC"]}, "currencies": {"currency": ["港幣", "人民幣"]}, "latitude": "22.400534335715438", "longitude": "114.20395374298096"}, {"@id": "1464", "region": "香港", "area": "新界", "district": "沙田", "ob_name": "中國銀行(香港)有限公司", "addr": "沙田沙角邨商場39號", "supp_tran": {"tran_name": ["現金提款, 轉賬, 結餘查詢, 更改私人密碼及其他基本服務", "強積金", "賬單繳費, 信用卡繳費, 慈善捐款", "PLUS", "JCB", "銀聯", "CIRRUS", "FISC"]}, "currencies": {"currency": "港幣"}, "latitude": "22.377668550756944", "longitude": "114.1940188407898"}, {"@id": "1465", "region": "香港", "area": "新界", "district": "沙田", "ob_name": "中國銀行(香港)有限公司", "addr": "沙田沙角邨商場39號", "supp_tran": {"tran_name": ["現金提款, 轉賬, 結餘查詢, 更改私人密碼及其他基本服務", "強積金", "賬單繳費, 信用卡繳費, 慈善捐款", "PLUS", "JCB", "銀聯", "CIRRUS", "FISC"]}, "currencies": {"currency": ["港幣", "人民幣"]}, "latitude": "22.377862008086105", "longitude": "114.19390082359314"}, {"@id": "1469", "region": "香港", "area": "新界", "district": "沙田", "ob_name": "中國銀行(香港)有限公司", "addr": "沙田大圍美林村美林商場一樓ATM No.1 (近郵政局的公眾地方)", "supp_tran": {"tran_name": ["現金提款, 轉賬, 結餘查詢, 更改私人密碼及其他基本服務", "強積金", "賬單繳費, 信用卡繳費, 慈善捐款", "PLUS", "JCB", "銀聯", "CIRRUS", "FISC"]}, "currencies": {"currency": ["港幣", "人民幣"]}, "latitude": "22.37794633555567", "longitude": "114.17616605758667"}, {"@id": "7308", "region": "香港", "area": "新界", "district": "沙田", "ob_name": "中國銀行(香港)有限公司", "addr": "新界沙田隆亨邨商場103號", "supp_tran": {"tran_name": ["現金提款, 轉賬, 結餘查詢, 更改私人密碼及其他基本服務", "強積金", "賬單繳費, 信用卡繳費, 慈善捐款", "PLUS", "JCB", "銀聯", "CIRRUS", "FISC"]}, "currencies": {"currency": ["港幣", "人民幣"]}, "latitude": "22.368534", "longitude": "114.179783"}, {"@id": "27917", "region": "香港", "area": "新界", "district": "沙田", "ob_name": "中國銀行(香港)有限公司", "addr": "港鐵沙田站非付款大堂(SHT ATM 13 & SHT ATM 14)", "supp_tran": {"tran_name": ["現金提款, 轉賬, 結餘查詢, 更改私人密碼及其他基本服務", "強積金", "賬單繳費, 信用卡繳費, 慈善捐款", "PLUS", "JCB", "銀聯", "CIRRUS", "FISC"]}, "currencies": {"currency": ["港幣", "人民幣"]}, "latitude": "22.382648751212876", "longitude": "114.18749570846558"}, {"@id": "27918", "region": "香港", "area": "新界", "district": "沙田", "ob_name": "中國銀行(香港)有限公司", "addr": "港鐵沙田站非付款大堂 (SHT ATM 13 & SHT ATM 14)", "supp_tran": {"tran_name": ["現金提款, 轉賬, 結餘查詢, 更改私人密碼及其他基本服務", "強積金", "賬單繳費, 信用卡繳費, 慈善捐款", "PLUS", "JCB", "銀聯", "CIRRUS", "FISC"]}, "currencies": {"currency": ["港幣", "人民幣"]}, "latitude": "22.38262146972382", "longitude": "114.18745279312134"}, {"@id": "38683", "region": "香港", "area": "新界", "district": "沙田", "ob_name": "中國銀行(香港)有限公司", "addr": "新界沙田恒信街2號富安花園地下2C舖", "supp_tran": {"tran_name": ["現金提款, 轉賬, 結餘查詢, 更改私人密碼及其他基本服務", "強積金", "賬單繳費, 信用卡繳費, 慈善捐款", "PLUS", "JCB", "銀聯", "CIRRUS", "FISC"]}, "currencies": {"currency": ["港幣", "人民幣"]}, "latitude": "22.403497", "longitude": "114.225708"}, {"@id": "66144", "region": "香港", "area": "新界", "district": "沙田", "ob_name": "中國銀行(香港)有限公司", "addr": "沙田碩門邨健碩樓地下", "supp_tran": {"tran_name": ["現金提款, 轉賬, 結餘查詢, 更改私人密碼及其他基本服務", "強積金", "賬單繳費, 信用卡繳費, 慈善捐款", "PLUS", "JCB", "銀聯", "CIRRUS", "FISC"]}, "currencies": {"currency": ["港幣", "人民幣"]}, "latitude": "22.386785555095088", "longitude": "114.20911431312561"}, {"@id": "83314", "region": "香港", "area": "新界", "district": "沙田", "ob_name": "中國銀行(香港)有限公司", "addr": "新界沙田新城市廣場第一期六樓608號", "supp_tran": {"tran_name": ["現金提款, 轉賬, 結餘查詢, 更改私人密碼及其他基本服務", "強積金", "賬單繳費, 信用卡繳費, 慈善捐款", "PLUS", "JCB", "銀聯", "CIRRUS", "FISC"]}, "currencies": {"currency": "港幣"}, "latitude": "22.381714", "longitude": "114.187849"}, {"@id": "122589", "region": "香港", "area": "新界", "district": "沙田", "ob_name": "中國銀行(香港)有限公司", "addr": "沙田馬場會員席(內地客戶區域)", "supp_tran": {"tran_name": ["現金提款, 轉賬, 結餘查詢, 更改私人密碼及其他基本服務", "強積金", "賬單繳費, 信用卡繳費, 慈善捐款", "PLUS", "JCB", "銀聯", "CIRRUS", "FISC"]}, "currencies": {"currency": ["港幣", "人民幣"]}, "latitude": "22.400992", "longitude": "114.205178"}, {"@id": "131676", "region": "香港", "area": "新界", "district": "沙田", "ob_name": "中國銀行(香港)有限公司", "addr": "沙田德厚街3號禾輋邨禾輋商場二樓5號", "supp_tran": {"tran_name": ["現金提款, 轉賬, 結餘查詢, 更改私人密碼及其他基本服務", "強積金", "賬單繳費, 信用卡繳費, 慈善捐款", "PLUS", "JCB", "銀聯", "CIRRUS", "FISC"]}, "currencies": {"currency": ["港幣", "人民幣"]}, "latitude": "22.387514691228357", "longitude": "114.1955316066742"}, {"@id": "131675", "region": "香港", "area": "新界", "district": "沙田", "ob_name": "中國銀行(香港)有限公司", "addr": "沙田大圍車公廟路69號顯徑邨顯徑商場B翼地下3號", "supp_tran": {"tran_name": ["現金提款, 轉賬, 結餘查詢, 更改私人密碼及其他基本服務", "強積金", "賬單繳費, 信用卡繳費, 慈善捐款", "PLUS", "JCB", "銀聯", "CIRRUS", "FISC"]}, "currencies": {"currency": ["港幣", "人民幣"]}, "latitude": "22.365762966920687", "longitude": "114.1737574338913"}, {"@id": "162118", "region": "香港", "area": "新界", "district": "沙田", "ob_name": "中國銀行(香港)有限公司", "addr": "沙田馬場 - 第二座看台 2樓", "supp_tran": {"tran_name": ["現金提款, 轉賬, 結餘查詢, 更改私人密碼及其他基本服務", "強積金", "賬單繳費, 信用卡繳費, 慈善捐款", "PLUS", "JCB", "銀聯", "CIRRUS", "FISC"]}, "currencies": {"currency": ["港幣", "人民幣"]}, "latitude": "22.400992", "longitude": "114.20517799999993"}, {"@id": "171367", "region": "香港", "area": "新界", "district": "沙田", "ob_name": "中國銀行(香港)有限公司", "addr": "新界沙田橫壆街1-15號好運中心地下20號舖", "supp_tran": {"tran_name": ["現金提款, 轉賬, 結餘查詢, 更改私人密碼及其他基本服務", "強積金", "賬單繳費, 信用卡繳費, 慈善捐款", "PLUS", "JCB", "銀聯", "CIRRUS", "FISC"]}, "currencies": {"currency": ["港幣", "人民幣"]}, "latitude": "22.383577", "longitude": "114.19012399999997"}, {"@id": "171366", "region": "香港", "area": "新界", "district": "沙田", "ob_name": "中國銀行(香港)有限公司", "addr": "新界沙田橫壆街1-15號好運中心地下20號舖", "supp_tran": {"tran_name": ["現金提款, 轉賬, 結餘查詢, 更改私人密碼及其他基本服務", "強積金", "賬單繳費, 信用卡繳費, 慈善捐款", "PLUS", "JCB", "銀聯", "CIRRUS", "FISC"]}, "currencies": {"currency": ["港幣", "人民幣"]}, "latitude": "22.383577", "longitude": "114.19012399999997"}, {"@id": "199836", "region": "香港", "area": "新界", "district": "沙田", "ob_name": "中國銀行(香港)有限公司", "addr": "沙田圍博康邨商業中心125號舖", "supp_tran": {"tran_name": ["現金提款, 轉賬, 結餘查詢, 更改私人密碼及其他基本服務", "強積金", "賬單繳費, 信用卡繳費, 慈善捐款", "PLUS", "JCB", "銀聯", "CIRRUS", "FISC"]}, "currencies": {"currency": ["港幣", "人民幣"]}, "latitude": "22.375105736577243", "longitude": "114.19341350793456"}, {"@id": "1466", "region": "香港", "area": "新界", "district": "沙田", "ob_name": "中國銀行(香港)有限公司", "addr": "新界沙田新城市廣場第一期六樓608號", "supp_tran": {"tran_name": ["現金提款, 轉賬, 結餘查詢, 更改私人密碼及其他基本服務", "強積金", "賬單繳費, 信用卡繳費, 慈善捐款", "PLUS", "JCB", "銀聯", "CIRRUS", "FISC"]}, "currencies": {"currency": ["港幣", "人民幣"]}, "latitude": "22.38172117758428", "longitude": "114.18859541416168"}, {"@id": "231824", "region": "香港", "area": "新界", "district": "沙田", "ob_name": "中國銀行(香港)有限公司", "addr": "新界沙田水泉澳廣場博泉街2樓208號舖", "supp_tran": {"tran_name": ["現金提款, 轉賬, 結餘查詢, 更改私人密碼及其他基本服務", "強積金", "賬單繳費, 信用卡繳費, 慈善捐款", "PLUS", "JCB", "銀聯", "CIRRUS", "FISC"]}, "currencies": {"currency": ["港幣", "人民幣"]}, "latitude": "22.373467", "longitude": "114.197165"}, {"@id": "255022", "region": "香港", "area": "新界", "district": "沙田", "ob_name": "中國銀行(香港)有限公司", "addr": "新界沙田隆亨村商場L2層ATM No.3 & 4", "supp_tran": {"tran_name": ["現金提款, 轉賬, 結餘查詢, 更改私人密碼及其他基本服務", "強積金", "賬單繳費, 信用卡繳費, 慈善捐款", "PLUS", "JCB", "銀聯", "CIRRUS", "FISC"]}, "currencies": {"currency": ["港幣", "人民幣"]}, "latitude": "22.367890", "longitude": "114.179192"}, {"@id": "1468", "region": "香港", "area": "新界", "district": "沙田", "ob_name": "中國銀行(香港)有限公司", "addr": "沙田第一城銀城商場24號", "supp_tran": {"tran_name": ["現金提款, 轉賬, 結餘查詢, 更改私人密碼及其他基本服務", "強積金", "賬單繳費, 信用卡繳費, 慈善捐款", "PLUS", "JCB", "銀聯", "CIRRUS", "FISC"]}, "currencies": {"currency": "港幣"}, "latitude": "22.387148", "longitude": "114.202776"}, {"@id": "1471", "region": "香港", "area": "新界", "district": "沙田", "ob_name": "中國銀行(香港)有限公司", "addr": "沙田第一城銀城商場24號", "supp_tran": {"tran_name": ["現金提款, 轉賬, 結餘查詢, 更改私人密碼及其他基本服務", "強積金", "賬單繳費, 信用卡繳費, 慈善捐款", "PLUS", "JCB", "銀聯", "CIRRUS", "FISC"]}, "currencies": {"currency": ["港幣", "人民幣"]}, "latitude": "22.387148", "longitude": "114.202776"}, {"@id": "1472", "region": "香港", "area": "新界", "district": "沙田", "ob_name": "中國銀行(香港)有限公司", "addr": "沙田九廣鐵路馬鐵線沙田圍站付款大堂3號鋪", "supp_tran": {"tran_name": ["現金提款, 轉賬, 結餘查詢, 更改私人密碼及其他基本服務", "強積金", "賬單繳費, 信用卡繳費, 慈善捐款", "PLUS", "JCB", "銀聯", "CIRRUS", "FISC"]}, "currencies": {"currency": ["港幣", "人民幣"]}, "latitude": "22.377311398058094", "longitude": "114.1953706741333"}, {"@id": "1473", "region": "香港", "area": "新界", "district": "沙田", "ob_name": "中國銀行(香港)有限公司", "addr": "沙田九廣鐵路馬鐵線沙田圍站付款大堂3號鋪", "supp_tran": {"tran_name": ["現金提款, 轉賬, 結餘查詢, 更改私人密碼及其他基本服務", "強積金", "賬單繳費, 信用卡繳費, 慈善捐款", "PLUS", "JCB", "銀聯", "CIRRUS", "FISC"]}, "currencies": {"currency": ["港幣", "人民幣"]}, "latitude": "22.3771576", "longitude": "114.1951337"}, {"@id": "1474", "region": "香港", "area": "新界", "district": "沙田", "ob_name": "中國銀行(香港)有限公司", "addr": "沙田馬場-第二座大看台二樓", "supp_tran": {"tran_name": ["現金提款, 轉賬, 結餘查詢, 更改私人密碼及其他基本服務", "強積金", "賬單繳費, 信用卡繳費, 慈善捐款", "PLUS", "JCB", "銀聯", "CIRRUS", "FISC"]}, "currencies": {"currency": ["港幣", "人民幣"]}, "latitude": "22.400484739383113", "longitude": "114.20397520065308"}, {"@id": "1475", "region": "香港", "area": "新界", "district": "沙田", "ob_name": "中國銀行(香港)有限公司", "addr": "沙田九廣鐵路第一城站付款大堂4號鋪", "supp_tran": {"tran_name": ["現金提款, 轉賬, 結餘查詢, 更改私人密碼及其他基本服務", "強積金", "賬單繳費, 信用卡繳費, 慈善捐款", "PLUS", "JCB", "銀聯", "CIRRUS", "FISC"]}, "currencies": {"currency": ["港幣", "人民幣"]}, "latitude": "22.383005890212427", "longitude": "114.20344948768616"}, {"@id": "1476", "region": "香港", "area": "新界", "district": "沙田", "ob_name": "中國銀行(香港)有限公司", "addr": "沙田九廣鐵路第一城站付款大堂4號鋪", "supp_tran": {"tran_name": ["現金提款, 轉賬, 結餘查詢, 更改私人密碼及其他基本服務", "強積金", "賬單繳費, 信用卡繳費, 慈善捐款", "PLUS", "JCB", "銀聯", "CIRRUS", "FISC"]}, "currencies": {"currency": ["港幣", "人民幣"]}, "latitude": "22.382936446589863", "longitude": "114.20350313186646"}, {"@id": "1451", "region": "香港", "area": "新界", "district": "沙田", "ob_name": "東亞銀行有限公司", "addr": "沙田廣場地下4號", "supp_tran": {"tran_name": ["現金提款, 轉賬, 結餘查詢, 更改私人密碼及其他基本服務", "強積金", "跨行轉賬", "賬單繳費, 信用卡繳費, 慈善捐款", "PLUS", "JCB", "銀聯", "CIRRUS", "Diners Club", "FISC", "Discover"]}, "currencies": {"currency": ["港幣", "人民幣"]}, "latitude": "22.382829245044394", "longitude": "114.18918847486884"}, {"@id": "231827", "region": "香港", "area": "新界", "district": "沙田", "ob_name": "東亞銀行有限公司", "addr": "沙田廣場地下4號", "supp_tran": {"tran_name": ["現金提款, 轉賬, 結餘查詢, 更改私人密碼及其他基本服務", "強積金", "跨行轉賬", "賬單繳費, 信用卡繳費, 慈善捐款", "PLUS", "JCB", "銀聯", "CIRRUS", "Diners Club", "FISC", "Discover"]}, "currencies": {"currency": ["港幣", "人民幣"]}, "latitude": "22.383241", "longitude": "114.189426"}, {"@id": "17457", "region": "香港", "area": "新界", "district": "沙田", "ob_name": "東亞銀行有限公司", "addr": "沙田大圍道16-18號祥豐大樓", "supp_tran": {"tran_name": ["現金提款, 轉賬, 結餘查詢, 更改私人密碼及其他基本服務", "強積金", "跨行轉賬", "賬單繳費, 信用卡繳費, 慈善捐款", "PLUS", "JCB", "銀聯", "CIRRUS", "FISC", "Diners Club", "Discover"]}, "currencies": {"currency": ["港幣", "人民幣"]}, "latitude": "22.3759165", "longitude": "114.177601"}, {"@id": "104325", "region": "香港", "area": "新界", "district": "沙田", "ob_name": "東亞銀行有限公司", "addr": "新界沙田香港中文大學池旁路龐萬倫學生中心1樓108室", "supp_tran": {"tran_name": ["現金提款, 轉賬, 結餘查詢, 更改私人密碼及其他基本服務", "強積金", "跨行轉賬", "賬單繳費, 信用卡繳費, 慈善捐款", "PLUS", "JCB", "銀聯", "CIRRUS", "Diners Club", "FISC", "Discover"]}, "currencies": {"currency": "港幣"}, "latitude": "22.42134", "longitude": "114.207139"}, {"@id": "281616", "region": "香港", "area": "新界", "district": "沙田", "ob_name": "東亞銀行有限公司", "addr": "沙田香港中文大學池旁路龐萬倫學生中心1樓108室", "supp_tran": {"tran_name": ["現金提款, 轉賬, 結餘查詢, 更改私人密碼及其他基本服務", "強積金", "跨行轉賬", "賬單繳費, 信用卡繳費, 慈善捐款", "PLUS", "JCB", "銀聯", "CIRRUS", "FISC", "Diners Club", "Discover"]}, "currencies": {"currency": ["港幣", "人民幣"]}, "latitude": "22.4170907", "longitude": "114.20883249999997"}, {"@id": "68939", "region": "香港", "area": "新界", "district": "沙田", "ob_name": "東亞銀行有限公司", "addr": "新界沙田牛皮沙街2,6,8號愉翠苑愉翠商場1樓自動櫃員機 3號", "supp_tran": {"tran_name": ["現金提款, 轉賬, 結餘查詢, 更改私人密碼及其他基本服務", "強積金", "跨行轉賬", "賬單繳費, 信用卡繳費, 慈善捐款", "PLUS", "JCB", "銀聯", "CIRRUS", "Diners Club", "FISC", "Discover"]}, "currencies": {"currency": "港幣"}, "latitude": "22.38193943075911", "longitude": "114.20540750026703"}, {"@id": "77438", "region": "香港", "area": "新界", "district": "沙田", "ob_name": "東亞銀行有限公司", "addr": "新界沙田廣源商場地下自動櫃員機 2號", "supp_tran": {"tran_name": ["現金提款, 轉賬, 結餘查詢, 更改私人密碼及其他基本服務", "強積金", "跨行轉賬", "賬單繳費, 信用卡繳費, 慈善捐款", "PLUS", "JCB", "銀聯", "CIRRUS", "Diners Club", "FISC", "Discover"]}, "currencies": {"currency": "港幣"}, "latitude": "22.38122018604714", "longitude": "114.21565890312195"}, {"@id": "101257", "region": "香港", "area": "新界", "district": "沙田", "ob_name": "東亞銀行有限公司", "addr": "沙田‧香港中文大學新亞書院樂群館 - 梁雄姬樓地下", "supp_tran": {"tran_name": ["現金提款, 轉賬, 結餘查詢, 更改私人密碼及其他基本服務", "強積金", "跨行轉賬", "賬單繳費, 信用卡繳費, 慈善捐款", "PLUS", "JCB", "銀聯", "CIRRUS", "Diners Club", "FISC", "Discover"]}, "currencies": {"currency": "港幣"}, "latitude": "22.420773121417238", "longitude": "114.20929670333862"}, {"@id": "1454", "region": "香港", "area": "新界", "district": "沙田", "ob_name": "東亞銀行有限公司", "addr": "沙田中文大學范克廉樓地下", "supp_tran": {"tran_name": ["現金提款, 轉賬, 結餘查詢, 更改私人密碼及其他基本服務", "強積金", "跨行轉賬", "賬單繳費, 信用卡繳費, 慈善捐款", "PLUS", "JCB", "銀聯", "CIRRUS", "Diners Club", "FISC", "Discover"]}, "currencies": {"currency": "港幣"}, "latitude": "22.4184032", "longitude": "114.2051955"}, {"@id": "1455", "region": "香港", "area": "新界", "district": "沙田", "ob_name": "東亞銀行有限公司", "addr": "沙田禾輋邨禾輋商場近56號舖", "supp_tran": {"tran_name": ["現金提款, 轉賬, 結餘查詢, 更改私人密碼及其他基本服務", "強積金", "跨行轉賬", "賬單繳費, 信用卡繳費, 慈善捐款", "PLUS", "JCB", "銀聯", "CIRRUS", "FISC", "Diners Club", "Discover"]}, "currencies": {"currency": "港幣"}, "latitude": "22.387440289757205", "longitude": "114.19563889503479"}, {"@id": "1457", "region": "香港", "area": "新界", "district": "沙田", "ob_name": "東亞銀行有限公司", "addr": "沙田大圍美田邨美田商場1樓104號舖對面", "supp_tran": {"tran_name": ["現金提款, 轉賬, 結餘查詢, 更改私人密碼及其他基本服務", "強積金", "跨行轉賬", "賬單繳費, 信用卡繳費, 慈善捐款", "PLUS", "JCB", "銀聯", "CIRRUS", "FISC", "Diners Club", "Discover"]}, "currencies": {"currency": "港幣"}, "latitude": "22.376279", "longitude": "114.170575"}, {"@id": "137818", "region": "香港", "area": "新界", "district": "沙田", "ob_name": "星展銀行(香港)有限公司", "addr": "沙田正街21-27號沙田廣場第一層47及48號舖", "supp_tran": {"tran_name": ["現金提款, 轉賬, 結餘查詢, 更改私人密碼及其他基本服務", "賬單繳費, 信用卡繳費, 慈善捐款", "PLUS", "銀聯", "CIRRUS"]}, "currencies": {"currency": ["港幣", "人民幣"]}, "latitude": "22.3834551", "longitude": "114.18959760000007"}, {"@id": "1485", "region": "香港", "area": "新界", "district": "沙田", "ob_name": "星展銀行(香港)有限公司", "addr": "沙田正街21-27號沙田廣場第一層47及48號舖", "supp_tran": {"tran_name": ["現金提款, 轉賬, 結餘查詢, 更改私人密碼及其他基本服務", "賬單繳費, 信用卡繳費, 慈善捐款", "PLUS", "銀聯", "CIRRUS"]}, "currencies": {"currency": ["港幣", "人民幣"]}, "latitude": "22.383095174819065", "longitude": "114.18933838605881"}, {"@id": "1480", "region": "香港", "area": "新界", "district": "沙田", "ob_name": "中信銀行(國際)有限公司", "addr": "沙田橫壆街2-16號沙田中心3樓商舖52C, 52F & 53A", "supp_tran": {"tran_name": ["現金提款, 轉賬, 結餘查詢, 更改私人密碼及其他基本服務", "跨行轉賬", "賬單繳費, 信用卡繳費, 慈善捐款", "銀聯"]}, "currencies": {"currency": ["港幣", "人民幣"]}, "latitude": "22.38318445936842", "longitude": "114.18983191251755"}, {"@id": "1511", "region": "香港", "area": "新界", "district": "沙田", "ob_name": "招商永隆銀行有限公司", "addr": "沙田大圍道8號", "supp_tran": {"tran_name": ["現金提款, 轉賬, 結餘查詢, 更改私人密碼及其他基本服務", "強積金", "跨行轉賬", "賬單繳費, 信用卡繳費, 慈善捐款", "PLUS", "JCB", "銀聯", "CIRRUS"]}, "currencies": {"currency": ["港幣", "人民幣"]}, "latitude": "22.376006790827596", "longitude": "114.17724162340164"}, {"@id": "1512", "region": "香港", "area": "新界", "district": "沙田", "ob_name": "招商永隆銀行有限公司", "addr": "沙田正街21號沙田廣場地下2號舖", "supp_tran": {"tran_name": ["現金提款, 轉賬, 結餘查詢, 更改私人密碼及其他基本服務", "強積金", "跨行轉賬", "賬單繳費, 信用卡繳費, 慈善捐款", "PLUS", "JCB", "銀聯", "CIRRUS"]}, "currencies": {"currency": ["港幣", "人民幣"]}, "latitude": "22.38303565175434", "longitude": "114.18929815292358"}, {"@id": "41412", "region": "香港", "area": "新界", "district": "沙田", "ob_name": "招商永隆銀行有限公司", "addr": "新界白石角香港科學園1期核心大樓1座地下S003鋪", "supp_tran": {"tran_name": ["現金提款, 轉賬, 結餘查詢, 更改私人密碼及其他基本服務", "強積金", "跨行轉賬", "賬單繳費, 信用卡繳費, 慈善捐款", "PLUS", "JCB", "銀聯", "CIRRUS"]}, "currencies": {"currency": ["港幣", "人民幣"]}, "latitude": "22.424973254608897", "longitude": "114.21312689781189"}, {"@id": "1492", "region": "香港", "area": "新界", "district": "沙田", "ob_name": "上海商業銀行", "addr": "沙田橫壆街沙田中心70號B", "supp_tran": {"tran_name": ["現金提款, 轉賬, 結餘查詢, 更改私人密碼及其他基本服務", "強積金", "跨行轉賬", "賬單繳費, 信用卡繳費, 慈善捐款", "PLUS", "JCB", "銀聯", "CIRRUS", "FISC"]}, "currencies": {"currency": ["港幣", "人民幣"]}, "latitude": "22.382440419706427", "longitude": "114.19034957885742"}, {"@id": "1449", "region": "香港", "area": "新界", "district": "沙田", "ob_name": "交通銀行股份有限公司", "addr": "沙田廣源邨商場第二座1-2號舖", "supp_tran": {"tran_name": ["現金提款, 轉賬, 結餘查詢, 更改私人密碼及其他基本服務", "強積金", "跨行轉賬", "賬單繳費, 信用卡繳費, 慈善捐款", "PLUS", "銀聯", "CIRRUS"]}, "currencies": {"currency": ["港幣", "人民幣"]}, "latitude": "22.380684470328507", "longitude": "114.21533167362213"}, {"@id": "1450", "region": "香港", "area": "新界", "district": "沙田", "ob_name": "交通銀行股份有限公司", "addr": "沙田好運中心商場3樓193號舖", "supp_tran": {"tran_name": ["現金提款, 轉賬, 結餘查詢, 更改私人密碼及其他基本服務", "強積金", "跨行轉賬", "賬單繳費, 信用卡繳費, 慈善捐款", "PLUS", "銀聯", "CIRRUS"]}, "currencies": {"currency": ["港幣", "人民幣"]}, "latitude": "22.382291611296548", "longitude": "114.19117569923401"}, {"@id": "89150", "region": "香港", "area": "新界", "district": "沙田", "ob_name": "交通銀行股份有限公司", "addr": "新界沙田第一城置富第一城商場 1樓 188號舖", "supp_tran": {"tran_name": ["現金提款, 轉賬, 結餘查詢, 更改私人密碼及其他基本服務", "強積金", "跨行轉賬", "賬單繳費, 信用卡繳費, 慈善捐款", "PLUS", "銀聯", "CIRRUS"]}, "currencies": {"currency": ["港幣", "人民幣"]}, "latitude": "22.38282", "longitude": "114.20349"}, {"@id": "1491", "region": "香港", "area": "新界", "district": "沙田", "ob_name": "大眾銀行(香港)有限公司", "addr": "新界沙田好運中心商場4-6B舖", "supp_tran": {"tran_name": ["現金提款, 轉賬, 結餘查詢, 更改私人密碼及其他基本服務", "強積金", "跨行轉賬", "賬單繳費, 信用卡繳費, 慈善捐款", "JCB", "銀聯"]}, "currencies": {"currency": ["港幣", "人民幣"]}, "latitude": "22.38173605849343", "longitude": "114.18856590986252"}, {"@id": "98212", "region": "香港", "area": "新界", "district": "沙田", "ob_name": "華僑永亨銀行有限公司", "addr": "沙田大圍道32至34號", "supp_tran": {"tran_name": ["現金提款, 轉賬, 結餘查詢, 更改私人密碼及其他基本服務", "強積金", "跨行轉賬", "賬單繳費, 信用卡繳費, 慈善捐款", "JCB", "銀聯"]}, "currencies": {"currency": "港幣"}, "latitude": "22.375208146906566", "longitude": "114.17785048484802"}, {"@id": "215655", "region": "香港", "area": "新界", "district": "沙田", "ob_name": "華僑永亨銀行有限公司", "addr": "沙田好運中心地下16A&B號舖", "supp_tran": {"tran_name": ["現金提款, 轉賬, 結餘查詢, 更改私人密碼及其他基本服務", "強積金", "跨行轉賬", "賬單繳費, 信用卡繳費, 慈善捐款", "PLUS", "JCB", "銀聯"]}, "currencies": {"currency": "港幣"}, "latitude": "22.383577", "longitude": "114.19012399999997"}, {"@id": "1484", "region": "香港", "area": "新界", "district": "沙田", "ob_name": "集友銀行有限公司", "addr": "新界沙田穗禾苑商場F7號舖", "supp_tran": {"tran_name": ["現金提款, 轉賬, 結餘查詢, 更改私人密碼及其他基本服務", "強積金", "跨行轉賬", "賬單繳費, 信用卡繳費, 慈善捐款", "PLUS", "JCB", "銀聯", "CIRRUS", "FISC"]}, "currencies": {"currency": ["港幣", "人民幣"]}, "latitude": "22.39192414734157", "longitude": "114.19435679912567"}, {"@id": "1486", "region": "香港", "area": "新界", "district": "沙田", "ob_name": "大新銀行有限公司", "addr": "沙田 好運中心地下9號舖", "supp_tran": {"tran_name": ["現金提款, 轉賬, 結餘查詢, 更改私人密碼及其他基本服務", "強積金", "跨行轉賬", "賬單繳費, 信用卡繳費, 慈善捐款", "PLUS", "銀聯", "CIRRUS"]}, "currencies": {"currency": "港幣"}, "latitude": "22.383365", "longitude": "114.190754"}, {"@id": "30599", "region": "香港", "area": "新界", "district": "沙田", "ob_name": "創興銀行有限公司", "addr": "新界沙田瀝源邨瀝源廣場212號鋪", "supp_tran": {"tran_name": ["現金提款, 轉賬, 結餘查詢, 更改私人密碼及其他基本服務", "強積金", "跨行轉賬", "賬單繳費, 信用卡繳費, 慈善捐款", "銀聯"]}, "currencies": {"currency": "港幣"}, "latitude": "22.384756850097098", "longitude": "114.19167995452881"}, {"@id": "101264", "region": "香港", "area": "新界", "district": "沙田", "ob_name": "南洋商業銀行有限公司", "addr": "沙田橫壆街1-15號好運中心地下7-8號舖", "supp_tran": {"tran_name": ["現金提款, 轉賬, 結餘查詢, 更改私人密碼及其他基本服務", "強積金", "賬單繳費, 信用卡繳費, 慈善捐款", "PLUS", "JCB", "銀聯", "CIRRUS", "FISC"]}, "currencies": {"currency": ["港幣", "人民幣"]}, "latitude": "22.383142", "longitude": "114.190518"}, {"@id": "1489", "region": "香港", "area": "新界", "district": "沙田", "ob_name": "中國工商銀行(亞洲)有限公司", "addr": "沙田中心3樓22J號舖", "supp_tran": {"tran_name": ["現金提款, 轉賬, 結餘查詢, 更改私人密碼及其他基本服務", "跨行轉賬", "賬單繳費, 信用卡繳費, 慈善捐款", "JCB", "銀聯", "CIRRUS"]}, "currencies": {"currency": ["港幣", "人民幣"]}, "latitude": "22.38279011884314", "longitude": "114.19006794691086"}, {"@id": "162122", "region": "香港", "area": "新界", "district": "沙田", "ob_name": "中國工商銀行(亞洲)有限公司", "addr": "新界沙田好運中心3樓185號鋪位", "supp_tran": {"tran_name": ["現金提款, 轉賬, 結餘查詢, 更改私人密碼及其他基本服務", "跨行轉賬", "賬單繳費, 信用卡繳費, 慈善捐款", "JCB", "銀聯", "CIRRUS"]}, "currencies": {"currency": ["港幣", "人民幣"]}, "latitude": "22.382724", "longitude": "114.19126800000003"}, {"@id": "46943", "region": "香港", "area": "新界", "district": "沙田", "ob_name": "中國工商銀行(亞洲)有限公司", "addr": "沙田新城市中央廣場1樓顧客服務中心旁", "supp_tran": {"tran_name": ["現金提款, 轉賬, 結餘查詢, 更改私人密碼及其他基本服務", "跨行轉賬", "賬單繳費, 信用卡繳費, 慈善捐款", "JCB", "銀聯", "CIRRUS"]}, "currencies": {"currency": ["港幣", "人民幣"]}, "latitude": "22.385292550135116", "longitude": "114.18764591217041"}, {"@id": "80410", "region": "香港", "area": "新界", "district": "沙田", "ob_name": "中國工商銀行(亞洲)有限公司", "addr": "沙田乙明邨地下ATM位置", "supp_tran": {"tran_name": ["現金提款, 轉賬, 結餘查詢, 更改私人密碼及其他基本服務", "跨行轉賬", "賬單繳費, 信用卡繳費, 慈善捐款", "JCB", "銀聯", "CIRRUS"]}, "currencies": {"currency": ["港幣", "人民幣"]}, "latitude": "22.376230013464305", "longitude": "114.19278502464294"}, {"@id": "95199", "region": "香港", "area": "新界", "district": "沙田", "ob_name": "中國工商銀行(亞洲)有限公司", "addr": "港鐵沙田圍站STW 5A舖", "supp_tran": {"tran_name": ["現金提款, 轉賬, 結餘查詢, 更改私人密碼及其他基本服務", "跨行轉賬", "賬單繳費, 信用卡繳費, 慈善捐款", "JCB", "銀聯", "CIRRUS"]}, "currencies": {"currency": ["港幣", "人民幣"]}, "latitude": "22.376914560651034", "longitude": "114.19508099555969"}, {"@id": "95200", "region": "香港", "area": "新界", "district": "沙田", "ob_name": "中國工商銀行(亞洲)有限公司", "addr": "港鐵第一城站CIO 7A舖", "supp_tran": {"tran_name": ["現金提款, 轉賬, 結餘查詢, 更改私人密碼及其他基本服務", "跨行轉賬", "賬單繳費, 信用卡繳費, 慈善捐款", "JCB", "銀聯", "CIRRUS"]}, "currencies": {"currency": ["港幣", "人民幣"]}, "latitude": "22.38275787711555", "longitude": "114.20339584350586"}, {"@id": "98231", "region": "香港", "area": "新界", "district": "沙田", "ob_name": "中國工商銀行(亞洲)有限公司", "addr": "沙田大圍美松苑停車場2樓1號ATM", "supp_tran": {"tran_name": ["現金提款, 轉賬, 結餘查詢, 更改私人密碼及其他基本服務", "跨行轉賬", "賬單繳費, 信用卡繳費, 慈善捐款", "JCB", "銀聯", "CIRRUS"]}, "currencies": {"currency": ["港幣", "人民幣"]}, "latitude": "22.381054", "longitude": "114.172751"}, {"@id": "128617", "region": "香港", "area": "新界", "district": "沙田", "ob_name": "中國工商銀行(亞洲)有限公司", "addr": "新界沙田德厚街3號禾輋廣場2樓", "supp_tran": {"tran_name": ["現金提款, 轉賬, 結餘查詢, 更改私人密碼及其他基本服務", "跨行轉賬", "賬單繳費, 信用卡繳費, 慈善捐款", "JCB", "銀聯", "CIRRUS"]}, "currencies": {"currency": ["港幣", "人民幣"]}, "latitude": "22.387708134867097", "longitude": "114.1952258348465"}, {"@id": "128614", "region": "香港", "area": "新界", "district": "沙田", "ob_name": "中國工商銀行(亞洲)有限公司", "addr": "新界沙田馬鞍山西沙路632號頌安商場1樓", "supp_tran": {"tran_name": ["現金提款, 轉賬, 結餘查詢, 更改私人密碼及其他基本服務", "跨行轉賬", "賬單繳費, 信用卡繳費, 慈善捐款", "JCB", "銀聯", "CIRRUS"]}, "currencies": {"currency": ["港幣", "人民幣"]}, "latitude": "22.4222003", "longitude": "114.2266043"}, {"@id": "212446", "region": "香港", "area": "新界", "district": "沙田", "ob_name": "中國工商銀行(亞洲)有限公司", "addr": "新界沙田小瀝源路68號廣源街市5樓", "supp_tran": {"tran_name": ["現金提款, 轉賬, 結餘查詢, 更改私人密碼及其他基本服務", "跨行轉賬", "賬單繳費, 信用卡繳費, 慈善捐款", "JCB", "銀聯", "CIRRUS"]}, "currencies": {"currency": ["港幣", "人民幣"]}, "latitude": "22.3816115", "longitude": "114.21536990000004"}, {"@id": "46954", "region": "香港", "area": "新界", "district": "沙田", "ob_name": "中國工商銀行(亞洲)有限公司", "addr": "港鐵沙田站 SHT21", "supp_tran": {"tran_name": ["現金提款, 轉賬, 結餘查詢, 更改私人密碼及其他基本服務", "跨行轉賬", "賬單繳費, 信用卡繳費, 慈善捐款", "JCB", "銀聯", "CIRRUS"]}, "currencies": {"currency": ["港幣", "人民幣"]}, "latitude": "22.38194439105455", "longitude": "114.18686270713806"}, {"@id": "46955", "region": "香港", "area": "新界", "district": "沙田", "ob_name": "中國工商銀行(亞洲)有限公司", "addr": "港鐵沙田站 SHT21", "supp_tran": {"tran_name": ["現金提款, 轉賬, 結餘查詢, 更改私人密碼及其他基本服務", "跨行轉賬", "賬單繳費, 信用卡繳費, 慈善捐款", "JCB", "銀聯", "CIRRUS"]}, "currencies": {"currency": ["港幣", "人民幣"]}, "latitude": "22.382003914586146", "longitude": "114.18684124946594"}, {"@id": "1488", "region": "香港", "area": "新界", "district": "沙田", "ob_name": "富邦銀行(香港)有限公司", "addr": "沙田橫壆街1-15號沙田好運中心商場15B、C、D及E號舖", "supp_tran": {"tran_name": ["現金提款, 轉賬, 結餘查詢, 更改私人密碼及其他基本服務", "強積金", "跨行轉賬", "賬單繳費, 信用卡繳費, 慈善捐款", "PLUS", "銀聯", "CIRRUS"]}, "currencies": {"currency": ["港幣", "人民幣"]}, "latitude": "22.382688", "longitude": "114.191239"}, {"@id": "77491", "region": "香港", "area": "新界", "district": "沙田", "ob_name": "花旗銀行(香港)有限公司", "addr": "新界沙田第一城銀城商場地下95鋪", "supp_tran": {"tran_name": ["現金提款, 轉賬, 結餘查詢, 更改私人密碼及其他基本服務", "賬單繳費, 信用卡繳費, 慈善捐款", "PLUS", "銀聯", "CIRRUS"]}, "currencies": {"currency": ["港幣", "人民幣"]}, "latitude": "22.38282", "longitude": "114.20349"}, {"@id": "4860", "region": "香港", "area": "新界", "district": "沙田", "ob_name": "花旗銀行(香港)有限公司", "addr": "沙田馬場連接大樓一樓", "supp_tran": {"tran_name": ["現金提款, 轉賬, 結餘查詢, 更改私人密碼及其他基本服務", "賬單繳費, 信用卡繳費, 慈善捐款", "PLUS", "銀聯", "CIRRUS"]}, "currencies": {"currency": "港幣"}, "latitude": "22.400137564561383", "longitude": "114.20446872711182"}, {"@id": "12324", "region": "香港", "area": "新界", "district": "沙田", "ob_name": "花旗銀行(香港)有限公司", "addr": "新界沙田第一城銀城商場地下95鋪", "supp_tran": {"tran_name": ["現金提款, 轉賬, 結餘查詢, 更改私人密碼及其他基本服務", "賬單繳費, 信用卡繳費, 慈善捐款", "PLUS", "銀聯", "CIRRUS"]}, "currencies": {"currency": ["港幣", "人民幣"]}, "latitude": "22.387149", "longitude": "114.202775"}, {"@id": "38696", "region": "香港", "area": "新界", "district": "沙田", "ob_name": "花旗銀行(香港)有限公司", "addr": "沙田馬場會員席一樓", "supp_tran": {"tran_name": ["現金提款, 轉賬, 結餘查詢, 更改私人密碼及其他基本服務", "賬單繳費, 信用卡繳費, 慈善捐款", "PLUS", "銀聯", "CIRRUS"]}, "currencies": {"currency": "港幣"}, "latitude": "22.400992", "longitude": "114.205178"}, {"@id": "186905", "region": "香港", "area": "新界", "district": "沙田", "ob_name": "花旗銀行(香港)有限公司", "addr": "沙田馬場會員席2樓", "supp_tran": {"tran_name": ["現金提款, 轉賬, 結餘查詢, 更改私人密碼及其他基本服務", "賬單繳費, 信用卡繳費, 慈善捐款", "PLUS", "銀聯", "CIRRUS"]}, "currencies": {"currency": ["港幣", "人民幣"]}, "latitude": "22.400992", "longitude": "114.20517799999993"}, {"@id": "295308", "region": "香港", "area": "新界", "district": "沙田", "ob_name": "花旗銀行(香港)有限公司", "addr": "沙田安平街1號", "supp_tran": {"tran_name": ["現金提款, 轉賬, 結餘查詢, 更改私人密碼及其他基本服務", "賬單繳費, 信用卡繳費, 慈善捐款", "PLUS", "銀聯", "CIRRUS"]}, "currencies": {"currency": ["港幣", "人民幣"]}, "latitude": "22.3921971", "longitude": "114.20828419999998"}, {"@id": "1482", "region": "香港", "area": "新界", "district": "沙田", "ob_name": "花旗銀行(香港)有限公司", "addr": "沙田廣場地下7號", "supp_tran": {"tran_name": ["現金提款, 轉賬, 結餘查詢, 更改私人密碼及其他基本服務", "賬單繳費, 信用卡繳費, 慈善捐款", "PLUS", "銀聯", "CIRRUS"]}, "currencies": {"currency": ["港幣", "人民幣"]}, "latitude": "22.383110055581277", "longitude": "114.18931424617767"}, {"@id": "77496", "region": "香港", "area": "新界", "district": "沙田", "ob_name": "花旗銀行(香港)有限公司", "addr": "沙田廣場地下7號", "supp_tran": {"tran_name": ["現金提款, 轉賬, 結餘查詢, 更改私人密碼及其他基本服務", "賬單繳費, 信用卡繳費, 慈善捐款", "PLUS", "銀聯", "CIRRUS"]}, "currencies": {"currency": ["港幣", "人民幣"]}, "latitude": "22.382806", "longitude": "114.188928"}, {"@id": "131666", "region": "香港", "area": "新界", "district": "沙田", "ob_name": "花旗銀行(香港)有限公司", "addr": "沙田廣場地下7號", "supp_tran": {"tran_name": ["現金提款, 轉賬, 結餘查詢, 更改私人密碼及其他基本服務", "賬單繳費, 信用卡繳費, 慈善捐款", "PLUS", "銀聯", "CIRRUS"]}, "currencies": {"currency": ["港幣", "人民幣"]}, "latitude": "22.382735", "longitude": "114.189049"}]}}}