{"xml_msg": {"@query": "region=2,area=1,district=4,transaction=585", "supp_cb": null, "atms": {"atm": [{"@id": "440", "region": "香港", "area": "香港", "district": "中環", "ob_name": "東亞銀行有限公司", "addr": "中環德輔道中10號L/F堂", "supp_tran": {"tran_name": ["現金提款, 轉賬, 結餘查詢, 更改私人密碼及其他基本服務", "強積金", "跨行轉賬", "賬單繳費, 信用卡繳費, 慈善捐款", "PLUS", "JCB", "銀聯", "CIRRUS", "Diners Club", "FISC", "Discover"]}, "currencies": {"currency": "港幣"}, "latitude": "22.28099062659591", "longitude": "114.15835618972778"}, {"@id": "441", "region": "香港", "area": "香港", "district": "中環", "ob_name": "東亞銀行有限公司", "addr": "中環德輔道中10號地下", "supp_tran": {"tran_name": ["現金提款, 轉賬, 結餘查詢, 更改私人密碼及其他基本服務", "強積金", "跨行轉賬", "賬單繳費, 信用卡繳費, 慈善捐款", "PLUS", "JCB", "銀聯", "CIRRUS", "FISC", "Diners Club", "Discover"]}, "currencies": {"currency": ["港幣", "人民幣"]}, "latitude": "22.280945951607823", "longitude": "114.15837228298187"}, {"@id": "442", "region": "香港", "area": "香港", "district": "中環", "ob_name": "東亞銀行有限公司", "addr": "中環德輔道中10號地下", "supp_tran": {"tran_name": ["現金提款, 轉賬, 結餘查詢, 更改私人密碼及其他基本服務", "強積金", "跨行轉賬", "賬單繳費, 信用卡繳費, 慈善捐款", "PLUS", "JCB", "銀聯", "CIRRUS", "FISC", "Diners Club", "Discover"]}, "currencies": {"currency": "港幣"}, "latitude": "22.28103530156972", "longitude": "114.15838569402695"}, {"@id": "168280", "region": "香港", "area": "香港", "district": "中環", "ob_name": "東亞銀行有限公司", "addr": "中環德輔道中10號", "supp_tran": {"tran_name": ["現金提款, 轉賬, 結餘查詢, 更改私人密碼及其他基本服務", "強積金", "跨行轉賬", "賬單繳費, 信用卡繳費, 慈善捐款", "PLUS", "JCB", "銀聯", "CIRRUS", "FISC", "Diners Club", "Discover"]}, "currencies": {"currency": "港幣"}, "latitude": "22.28102461524925", "longitude": "114.15841384788518"}, {"@id": "137817", "region": "香港", "area": "香港", "district": "中環", "ob_name": "東亞銀行有限公司", "addr": "中環康樂廣場2號1樓", "supp_tran": {"tran_name": ["現金提款, 轉賬, 結餘查詢, 更改私人密碼及其他基本服務", "強積金", "跨行轉賬", "賬單繳費, 信用卡繳費, 慈善捐款", "PLUS", "JCB", "銀聯", "CIRRUS", "Diners Club", "FISC", "Discover"]}, "currencies": {"currency": "港幣"}, "latitude": "22.283577", "longitude": "114.15955800000006"}, {"@id": "152976", "region": "香港", "area": "香港", "district": "中環", "ob_name": "東亞銀行有限公司", "addr": "香港港鐵站L3 東涌綫大堂自動櫃員機 ATM Bay 號", "supp_tran": {"tran_name": ["現金提款, 轉賬, 結餘查詢, 更改私人密碼及其他基本服務", "強積金", "跨行轉賬", "賬單繳費, 信用卡繳費, 慈善捐款", "PLUS", "JCB", "銀聯", "CIRRUS", "Diners Club", "FISC", "Discover"]}, "currencies": {"currency": ["港幣", "人民幣"]}, "latitude": "22.284681", "longitude": "114.15817700000002"}, {"@id": "152974", "region": "香港", "area": "香港", "district": "中環", "ob_name": "東亞銀行有限公司", "addr": "香港港鐵站L3 東涌綫大堂自動櫃員機 ATM Bay 號", "supp_tran": {"tran_name": ["現金提款, 轉賬, 結餘查詢, 更改私人密碼及其他基本服務", "強積金", "跨行轉賬", "賬單繳費, 信用卡繳費, 慈善捐款", "PLUS", "JCB", "銀聯", "CIRRUS", "Diners Club", "FISC", "Discover"]}, "currencies": {"currency": "港幣"}, "latitude": "22.284681", "longitude": "114.15817700000002"}, {"@id": "174512", "region": "香港", "area": "香港", "district": "中環", "ob_name": "東亞銀行有限公司", "addr": "中環港景街1號國際金融中心商場一樓1105A號舖", "supp_tran": {"tran_name": ["現金提款, 轉賬, 結餘查詢, 更改私人密碼及其他基本服務", "強積金", "跨行轉賬", "賬單繳費, 信用卡繳費, 慈善捐款", "PLUS", "JCB", "銀聯", "CIRRUS", "FISC", "Diners Club", "Discover"]}, "currencies": {"currency": "港幣"}, "latitude": "22.2849128", "longitude": "114.15684590000001"}, {"@id": "446", "region": "香港", "area": "香港", "district": "中環", "ob_name": "東亞銀行有限公司", "addr": "中環娛樂行2樓2E及F號舖對出", "supp_tran": {"tran_name": ["現金提款, 轉賬, 結餘查詢, 更改私人密碼及其他基本服務", "強積金", "跨行轉賬", "賬單繳費, 信用卡繳費, 慈善捐款", "PLUS", "JCB", "銀聯", "CIRRUS", "Diners Club", "FISC", "Discover"]}, "currencies": {"currency": "港幣"}, "latitude": "22.281496942130026", "longitude": "114.15640354156494"}]}}}