{"xml_msg": {"@query": "region=2,area=3,district=63,transaction=585", "supp_cb": null, "atms": {"atm": [{"@id": "288377", "region": "香港", "area": "新界", "district": "天水圍", "ob_name": "東亞銀行有限公司", "addr": "天水圍嘉湖銀座第2期1樓103 及103A號舖", "supp_tran": {"tran_name": ["現金提款, 轉賬, 結餘查詢, 更改私人密碼及其他基本服務", "強積金", "跨行轉賬", "賬單繳費, 信用卡繳費, 慈善捐款", "PLUS", "JCB", "銀聯", "CIRRUS", "FISC", "Diners Club", "Discover"]}, "currencies": {"currency": ["港幣", "人民幣"]}, "latitude": "22.4569941", "longitude": "114.00468920000003"}, {"@id": "288376", "region": "香港", "area": "新界", "district": "天水圍", "ob_name": "東亞銀行有限公司", "addr": "天水圍嘉湖銀座第2期1樓103 及103A號舖", "supp_tran": {"tran_name": ["現金提款, 轉賬, 結餘查詢, 更改私人密碼及其他基本服務", "強積金", "跨行轉賬", "賬單繳費, 信用卡繳費, 慈善捐款", "PLUS", "JCB", "銀聯", "CIRRUS", "FISC", "Diners Club", "Discover"]}, "currencies": {"currency": "港幣"}, "latitude": "22.4569941", "longitude": "114.00468920000003"}, {"@id": "251739", "region": "香港", "area": "新界", "district": "天水圍", "ob_name": "東亞銀行有限公司", "addr": "新界天水圍天秀路8號天一商城1樓1095-1096號鋪", "supp_tran": {"tran_name": ["現金提款, 轉賬, 結餘查詢, 更改私人密碼及其他基本服務", "強積金", "跨行轉賬", "賬單繳費, 信用卡繳費, 慈善捐款", "PLUS", "JCB", "銀聯", "CIRRUS", "Diners Club", "FISC", "Discover"]}, "currencies": {"currency": ["港幣", "人民幣"]}, "latitude": "22.465507", "longitude": "113.998918"}, {"@id": "251738", "region": "香港", "area": "新界", "district": "天水圍", "ob_name": "東亞銀行有限公司", "addr": "新界天水圍天秀路8號天一商城1樓1095-1096號鋪", "supp_tran": {"tran_name": ["現金提款, 轉賬, 結餘查詢, 更改私人密碼及其他基本服務", "強積金", "跨行轉賬", "賬單繳費, 信用卡繳費, 慈善捐款", "PLUS", "JCB", "銀聯", "CIRRUS", "Diners Club", "FISC", "Discover"]}, "currencies": {"currency": "港幣"}, "latitude": "22.465507", "longitude": "113.998918"}, {"@id": "113549", "region": "香港", "area": "新界", "district": "天水圍", "ob_name": "東亞銀行有限公司", "addr": "新界天水圍天湖路2號天耀廣場地下自動櫃員機1號", "supp_tran": {"tran_name": ["現金提款, 轉賬, 結餘查詢, 更改私人密碼及其他基本服務", "強積金", "跨行轉賬", "賬單繳費, 信用卡繳費, 慈善捐款", "PLUS", "JCB", "銀聯", "CIRRUS", "Diners Club", "FISC", "Discover"]}, "currencies": {"currency": "港幣"}, "latitude": "22.451886793641232", "longitude": "114.001345038414"}, {"@id": "1596", "region": "香港", "area": "新界", "district": "天水圍", "ob_name": "東亞銀行有限公司", "addr": "天水圍天澤商場地下5號舖對出位置﹝扶手電梯側﹞", "supp_tran": {"tran_name": ["現金提款, 轉賬, 結餘查詢, 更改私人密碼及其他基本服務", "強積金", "跨行轉賬", "賬單繳費, 信用卡繳費, 慈善捐款", "PLUS", "JCB", "銀聯", "CIRRUS", "Diners Club", "FISC", "Discover"]}, "currencies": {"currency": "港幣"}, "latitude": "22.46826639091367", "longitude": "113.99874866008759"}, {"@id": "1597", "region": "香港", "area": "新界", "district": "天水圍", "ob_name": "東亞銀行有限公司", "addr": "天水圍天澤商場地下5號舖對出位置﹝扶手電梯側﹞", "supp_tran": {"tran_name": ["現金提款, 轉賬, 結餘查詢, 更改私人密碼及其他基本服務", "強積金", "跨行轉賬", "賬單繳費, 信用卡繳費, 慈善捐款", "PLUS", "JCB", "銀聯", "CIRRUS", "Diners Club", "FISC", "Discover"]}, "currencies": {"currency": "港幣"}, "latitude": "22.4682969", "longitude": "113.99881"}]}}}