{"xml_msg": {"@query": "region=2,area=2,district=24,transaction=2", "supp_cb": null, "atms": {"atm": [{"@id": "887", "region": "香港", "area": "九龍", "district": "佐敦", "ob_name": "中國建設銀行(亞洲)股份有限公司", "addr": "佐敦彌敦道314-316號地下及1樓", "supp_tran": {"tran_name": ["現金提款, 轉賬, 結餘查詢, 更改私人密碼及其他基本服務", "跨行轉賬", "賬單繳費, 信用卡繳費, 慈善捐款", "PLUS", "銀聯"]}, "currencies": {"currency": ["港幣", "人民幣"]}, "latitude": "22.306118044667905", "longitude": "114.1716518998146"}, {"@id": "209271", "region": "香港", "area": "九龍", "district": "佐敦", "ob_name": "東亞銀行有限公司", "addr": "九龍彌敦道241-243號金峰大廈地下E及F舖", "supp_tran": {"tran_name": ["現金提款, 轉賬, 結餘查詢, 更改私人密碼及其他基本服務", "強積金", "跨行轉賬", "賬單繳費, 信用卡繳費, 慈善捐款", "PLUS", "JCB", "銀聯", "CIRRUS", "Diners Club", "FISC", "Discover"]}, "currencies": {"currency": "港幣"}, "latitude": "22.3050959", "longitude": "114.17133860000001"}, {"@id": "41437", "region": "香港", "area": "九龍", "district": "佐敦", "ob_name": "中信銀行(國際)有限公司", "addr": "新界將軍澳重華路東港城商舖233", "supp_tran": {"tran_name": ["現金提款, 轉賬, 結餘查詢, 更改私人密碼及其他基本服務", "跨行轉賬", "賬單繳費, 信用卡繳費, 慈善捐款", "銀聯"]}, "currencies": {"currency": ["港幣", "人民幣"]}, "latitude": "22.315750", "longitude": "114.265551"}, {"@id": "41438", "region": "香港", "area": "九龍", "district": "佐敦", "ob_name": "中信銀行(國際)有限公司", "addr": "新界葵涌葵昌路51號九龍貿易中心1樓OS1a舖及OS1b舖", "supp_tran": {"tran_name": ["現金提款, 轉賬, 結餘查詢, 更改私人密碼及其他基本服務", "跨行轉賬", "賬單繳費, 信用卡繳費, 慈善捐款", "銀聯"]}, "currencies": {"currency": ["港幣", "人民幣"]}, "latitude": "22.361663", "longitude": "114.132686"}, {"@id": "893", "region": "香港", "area": "九龍", "district": "佐敦", "ob_name": "招商永隆銀行有限公司", "addr": "尖沙咀柯士甸道西3號香港西九龍站WEK G-1號舖", "supp_tran": {"tran_name": ["現金提款, 轉賬, 結餘查詢, 更改私人密碼及其他基本服務", "強積金", "跨行轉賬", "賬單繳費, 信用卡繳費, 慈善捐款", "PLUS", "JCB", "銀聯", "CIRRUS"]}, "currencies": {"currency": ["港幣", "人民幣"]}, "latitude": "22.304286147763797", "longitude": "114.16497260055542"}, {"@id": "891", "region": "香港", "area": "九龍", "district": "佐敦", "ob_name": "上海商業銀行", "addr": "佐敦道23號新寶廣場地下2號舖", "supp_tran": {"tran_name": ["現金提款, 轉賬, 結餘查詢, 更改私人密碼及其他基本服務", "強積金", "跨行轉賬", "賬單繳費, 信用卡繳費, 慈善捐款", "PLUS", "JCB", "銀聯", "CIRRUS", "FISC"]}, "currencies": {"currency": ["港幣", "人民幣"]}, "latitude": "22.305286740647052", "longitude": "114.1707694530487"}, {"@id": "98214", "region": "香港", "area": "九龍", "district": "佐敦", "ob_name": "華僑永亨銀行有限公司", "addr": "佐敦彌敦道298號", "supp_tran": {"tran_name": ["現金提款, 轉賬, 結餘查詢, 更改私人密碼及其他基本服務", "強積金", "跨行轉賬", "賬單繳費, 信用卡繳費, 慈善捐款", "JCB", "銀聯"]}, "currencies": {"currency": "港幣"}, "latitude": "22.3056743", "longitude": "114.1716633"}, {"@id": "889", "region": "香港", "area": "九龍", "district": "佐敦", "ob_name": "大新銀行有限公司", "addr": "佐敦彌敦道335號", "supp_tran": {"tran_name": ["現金提款, 轉賬, 結餘查詢, 更改私人密碼及其他基本服務", "強積金", "跨行轉賬", "賬單繳費, 信用卡繳費, 慈善捐款", "PLUS", "銀聯", "CIRRUS"]}, "currencies": {"currency": "港幣"}, "latitude": "22.30676075095205", "longitude": "114.17137026786804"}, {"@id": "888", "region": "香港", "area": "九龍", "district": "佐敦", "ob_name": "創興銀行有限公司", "addr": "佐敦吳松街120號地下", "supp_tran": {"tran_name": ["現金提款, 轉賬, 結餘查詢, 更改私人密碼及其他基本服務", "強積金", "跨行轉賬", "賬單繳費, 信用卡繳費, 慈善捐款", "銀聯"]}, "currencies": {"currency": "港幣"}, "latitude": "22.3050460337829", "longitude": "114.17021155357361"}, {"@id": "890", "region": "香港", "area": "九龍", "district": "佐敦", "ob_name": "中國工商銀行(亞洲)有限公司", "addr": "佐敦彌敦道233號佐敦薈1樓", "supp_tran": {"tran_name": ["現金提款, 轉賬, 結餘查詢, 更改私人密碼及其他基本服務", "跨行轉賬", "賬單繳費, 信用卡繳費, 慈善捐款", "JCB", "銀聯", "CIRRUS"]}, "currencies": {"currency": ["港幣", "人民幣"]}, "latitude": "22.30487729057924", "longitude": "114.17153656482697"}, {"@id": "35968", "region": "香港", "area": "九龍", "district": "佐敦", "ob_name": "中國工商銀行(亞洲)有限公司", "addr": "港鐵九龍站 KOW ATM 24", "supp_tran": {"tran_name": ["現金提款, 轉賬, 結餘查詢, 更改私人密碼及其他基本服務", "跨行轉賬", "賬單繳費, 信用卡繳費, 慈善捐款", "JCB", "銀聯", "CIRRUS"]}, "currencies": {"currency": ["港幣", "人民幣"]}, "latitude": "22.304281724701465", "longitude": "114.16182696819305"}, {"@id": "1319", "region": "香港", "area": "九龍", "district": "佐敦", "ob_name": "富邦銀行(香港)有限公司", "addr": "油麻地吳松街131-137號嘉和大廈地下A舖", "supp_tran": {"tran_name": ["現金提款, 轉賬, 結餘查詢, 更改私人密碼及其他基本服務", "強積金", "跨行轉賬", "賬單繳費, 信用卡繳費, 慈善捐款", "PLUS", "銀聯", "CIRRUS"]}, "currencies": {"currency": "港幣"}, "latitude": "22.305075811974152", "longitude": "114.17000502347946"}]}}}