{"xml_msg": {"@query": "region=2,area=3,district=66,transaction=4", "supp_cb": null, "atms": {"atm": [{"@id": "206098", "region": "香港", "area": "新界", "district": "荃灣", "ob_name": "渣打銀行(香港)有限公司", "addr": "新界荃灣眾安街8號周合成大廈地下A舖", "supp_tran": {"tran_name": ["現金提款, 轉賬, 結餘查詢, 更改私人密碼及其他基本服務", "賬單繳費, 信用卡繳費, 慈善捐款", "PLUS", "銀聯", "CIRRUS"]}, "currencies": {"currency": ["港幣", "人民幣"]}, "latitude": "22.3719", "longitude": "114.11831499999994"}, {"@id": "1717", "region": "香港", "area": "新界", "district": "荃灣", "ob_name": "渣打銀行(香港)有限公司", "addr": "荃灣眾安街6-8號周合成大廈地下A舖", "supp_tran": {"tran_name": ["現金提款, 轉賬, 結餘查詢, 更改私人密碼及其他基本服務", "賬單繳費, 信用卡繳費, 慈善捐款", "PLUS", "銀聯", "CIRRUS"]}, "currencies": {"currency": ["港幣", "人民幣"]}, "latitude": "22.37190191074119", "longitude": "114.11822229623795"}, {"@id": "1720", "region": "香港", "area": "新界", "district": "荃灣", "ob_name": "渣打銀行(香港)有限公司", "addr": "荃灣眾安街55號英皇娛樂廣場地下", "supp_tran": {"tran_name": ["現金提款, 轉賬, 結餘查詢, 更改私人密碼及其他基本服務", "賬單繳費, 信用卡繳費, 慈善捐款", "PLUS", "銀聯", "CIRRUS"]}, "currencies": {"currency": ["港幣", "人民幣"]}, "latitude": "22.370025", "longitude": "114.116708"}, {"@id": "278222", "region": "香港", "area": "新界", "district": "荃灣", "ob_name": "渣打銀行(香港)有限公司", "addr": "荃灣青山公路荃灣段398號愉景新城第二層2049舖", "supp_tran": {"tran_name": ["現金提款, 轉賬, 結餘查詢, 更改私人密碼及其他基本服務", "賬單繳費, 信用卡繳費, 慈善捐款", "PLUS", "銀聯", "CIRRUS"]}, "currencies": {"currency": ["港幣", "人民幣"]}, "latitude": "22.376359428311417", "longitude": "114.11152353167722"}, {"@id": "344323", "region": "香港", "area": "新界", "district": "荃灣", "ob_name": "渣打銀行(香港)有限公司", "addr": "荃灣街市街10 - 16號地下", "supp_tran": {"tran_name": ["現金提款, 轉賬, 結餘查詢, 更改私人密碼及其他基本服務", "賬單繳費, 信用卡繳費, 慈善捐款", "PLUS", "銀聯", "CIRRUS"]}, "currencies": {"currency": ["港幣", "人民幣"]}, "latitude": "22.3720086", "longitude": "114.11660170000005"}, {"@id": "1726", "region": "香港", "area": "新界", "district": "荃灣", "ob_name": "渣打銀行(香港)有限公司", "addr": "荃灣德士古道富麗商場1A, 2B, 3A-B, 9A-B & 9C地舖", "supp_tran": {"tran_name": ["現金提款, 轉賬, 結餘查詢, 更改私人密碼及其他基本服務", "賬單繳費, 信用卡繳費, 慈善捐款", "PLUS", "銀聯", "CIRRUS"]}, "currencies": {"currency": ["港幣", "人民幣"]}, "latitude": "22.36886347743038", "longitude": "114.1221410036087"}, {"@id": "1718", "region": "香港", "area": "新界", "district": "荃灣", "ob_name": "渣打銀行(香港)有限公司", "addr": "荃灣沙咀道298-304號翡翠廣場地下C號舖", "supp_tran": {"tran_name": ["現金提款, 轉賬, 結餘查詢, 更改私人密碼及其他基本服務", "賬單繳費, 信用卡繳費, 慈善捐款", "PLUS", "銀聯", "CIRRUS"]}, "currencies": {"currency": ["港幣", "人民幣"]}, "latitude": "22.369114", "longitude": "114.11733"}, {"@id": "1719", "region": "香港", "area": "新界", "district": "荃灣", "ob_name": "渣打銀行(香港)有限公司", "addr": "荃灣沙咀道298-304號翡翠廣場地下C號舖", "supp_tran": {"tran_name": ["現金提款, 轉賬, 結餘查詢, 更改私人密碼及其他基本服務", "賬單繳費, 信用卡繳費, 慈善捐款", "PLUS", "銀聯", "CIRRUS"]}, "currencies": {"currency": ["港幣", "人民幣"]}, "latitude": "22.369114", "longitude": "114.11733"}, {"@id": "1679", "region": "香港", "area": "新界", "district": "荃灣", "ob_name": "中國銀行(香港)有限公司", "addr": "港鐵荃灣站", "supp_tran": {"tran_name": ["現金提款, 轉賬, 結餘查詢, 更改私人密碼及其他基本服務", "強積金", "賬單繳費, 信用卡繳費, 慈善捐款", "PLUS", "JCB", "銀聯", "CIRRUS", "FISC"]}, "currencies": {"currency": ["港幣", "人民幣"]}, "latitude": "22.373680293592695", "longitude": "114.11774754524231"}, {"@id": "41414", "region": "香港", "area": "新界", "district": "荃灣", "ob_name": "中國銀行(香港)有限公司", "addr": "新界荃灣楊屋道1號荃新天地地下65號舖", "supp_tran": {"tran_name": ["現金提款, 轉賬, 結餘查詢, 更改私人密碼及其他基本服務", "強積金", "賬單繳費, 信用卡繳費, 慈善捐款", "PLUS", "JCB", "銀聯", "CIRRUS", "FISC"]}, "currencies": {"currency": ["港幣", "人民幣"]}, "latitude": "22.369781215297948", "longitude": "114.11367058753967"}, {"@id": "66143", "region": "香港", "area": "新界", "district": "荃灣", "ob_name": "中國銀行(香港)有限公司", "addr": "荃灣港安醫院 L/G 層鄰近餐廳入口ATM位置", "supp_tran": {"tran_name": ["現金提款, 轉賬, 結餘查詢, 更改私人密碼及其他基本服務", "強積金", "賬單繳費, 信用卡繳費, 慈善捐款", "PLUS", "JCB", "銀聯", "CIRRUS", "FISC"]}, "currencies": {"currency": ["港幣", "人民幣"]}, "latitude": "22.376485", "longitude": "114.103961"}, {"@id": "1680", "region": "香港", "area": "新界", "district": "荃灣", "ob_name": "中國銀行(香港)有限公司", "addr": "荃灣德士古道36號東亞花園A112號", "supp_tran": {"tran_name": ["現金提款, 轉賬, 結餘查詢, 更改私人密碼及其他基本服務", "強積金", "賬單繳費, 信用卡繳費, 慈善捐款", "PLUS", "JCB", "銀聯", "CIRRUS", "FISC"]}, "currencies": {"currency": "港幣"}, "latitude": "22.36852366484742", "longitude": "114.12224292755127"}, {"@id": "125591", "region": "香港", "area": "新界", "district": "荃灣", "ob_name": "中國銀行(香港)有限公司", "addr": "荃灣怡康街1-7號 海濱花園A平台鄰近AP-120舖的空地ATM位置", "supp_tran": {"tran_name": ["現金提款, 轉賬, 結餘查詢, 更改私人密碼及其他基本服務", "強積金", "賬單繳費, 信用卡繳費, 慈善捐款", "PLUS", "JCB", "銀聯", "CIRRUS", "FISC"]}, "currencies": {"currency": ["港幣", "人民幣"]}, "latitude": "22.36201745815335", "longitude": "114.11294370889663"}, {"@id": "1681", "region": "香港", "area": "新界", "district": "荃灣", "ob_name": "中國銀行(香港)有限公司", "addr": "港鐵荃灣西站(西鐵線)", "supp_tran": {"tran_name": ["現金提款, 轉賬, 結餘查詢, 更改私人密碼及其他基本服務", "強積金", "賬單繳費, 信用卡繳費, 慈善捐款", "PLUS", "JCB", "銀聯", "CIRRUS", "FISC"]}, "currencies": {"currency": ["港幣", "人民幣"]}, "latitude": "22.368732017186428", "longitude": "114.10975992679596"}, {"@id": "156027", "region": "香港", "area": "新界", "district": "荃灣", "ob_name": "中國銀行(香港)有限公司", "addr": "新界荃灣沙咀道297-299號", "supp_tran": {"tran_name": ["現金提款, 轉賬, 結餘查詢, 更改私人密碼及其他基本服務", "強積金", "賬單繳費, 信用卡繳費, 慈善捐款", "PLUS", "JCB", "銀聯", "CIRRUS", "FISC"]}, "currencies": {"currency": ["港幣", "人民幣"]}, "latitude": "22.369199", "longitude": "114.11806899999999"}, {"@id": "156028", "region": "香港", "area": "新界", "district": "荃灣", "ob_name": "中國銀行(香港)有限公司", "addr": "新界荃灣沙咀道297-299號", "supp_tran": {"tran_name": ["現金提款, 轉賬, 結餘查詢, 更改私人密碼及其他基本服務", "強積金", "賬單繳費, 信用卡繳費, 慈善捐款", "PLUS", "JCB", "銀聯", "CIRRUS", "FISC"]}, "currencies": {"currency": "港幣"}, "latitude": "22.369199", "longitude": "114.11806899999999"}, {"@id": "1683", "region": "香港", "area": "新界", "district": "荃灣", "ob_name": "中國銀行(香港)有限公司", "addr": "荃灣德士古道36號東亞花園A112號", "supp_tran": {"tran_name": ["現金提款, 轉賬, 結餘查詢, 更改私人密碼及其他基本服務", "強積金", "賬單繳費, 信用卡繳費, 慈善捐款", "PLUS", "JCB", "銀聯", "CIRRUS", "FISC"]}, "currencies": {"currency": ["港幣", "人民幣"]}, "latitude": "22.368486459039776", "longitude": "114.12218391895294"}, {"@id": "1684", "region": "香港", "area": "新界", "district": "荃灣", "ob_name": "中國銀行(香港)有限公司", "addr": "新界荃灣沙咀道297-299號", "supp_tran": {"tran_name": ["現金提款, 轉賬, 結餘查詢, 更改私人密碼及其他基本服務", "強積金", "賬單繳費, 信用卡繳費, 慈善捐款", "PLUS", "JCB", "銀聯", "CIRRUS", "FISC"]}, "currencies": {"currency": ["港幣", "人民幣"]}, "latitude": "22.369047025487863", "longitude": "114.11804795265198"}, {"@id": "168267", "region": "香港", "area": "新界", "district": "荃灣", "ob_name": "中國銀行(香港)有限公司", "addr": "荃灣綠楊坊地下G33號舖", "supp_tran": {"tran_name": ["現金提款, 轉賬, 結餘查詢, 更改私人密碼及其他基本服務", "強積金", "賬單繳費, 信用卡繳費, 慈善捐款", "PLUS", "JCB", "銀聯", "CIRRUS", "FISC"]}, "currencies": {"currency": ["港幣", "人民幣"]}, "latitude": "22.372539", "longitude": "114.11994099999992"}, {"@id": "168268", "region": "香港", "area": "新界", "district": "荃灣", "ob_name": "中國銀行(香港)有限公司", "addr": "荃灣綠楊坊地下G33號舖", "supp_tran": {"tran_name": ["現金提款, 轉賬, 結餘查詢, 更改私人密碼及其他基本服務", "強積金", "賬單繳費, 信用卡繳費, 慈善捐款", "PLUS", "JCB", "銀聯", "CIRRUS", "FISC"]}, "currencies": {"currency": "港幣"}, "latitude": "22.372539", "longitude": "114.11994099999992"}, {"@id": "206088", "region": "香港", "area": "新界", "district": "荃灣", "ob_name": "中國銀行(香港)有限公司", "addr": "新界荃灣青山公路荃灣段201-207號新青大廈地下及一樓", "supp_tran": {"tran_name": ["現金提款, 轉賬, 結餘查詢, 更改私人密碼及其他基本服務", "強積金", "賬單繳費, 信用卡繳費, 慈善捐款", "PLUS", "JCB", "銀聯", "CIRRUS", "FISC"]}, "currencies": {"currency": ["港幣", "人民幣"]}, "latitude": "22.3724774", "longitude": "114.11760900000001"}, {"@id": "206087", "region": "香港", "area": "新界", "district": "荃灣", "ob_name": "中國銀行(香港)有限公司", "addr": "新界荃灣青山公路荃灣段201-207號新青大廈地下及一樓", "supp_tran": {"tran_name": ["現金提款, 轉賬, 結餘查詢, 更改私人密碼及其他基本服務", "強積金", "賬單繳費, 信用卡繳費, 慈善捐款", "PLUS", "JCB", "銀聯", "CIRRUS", "FISC"]}, "currencies": {"currency": ["港幣", "人民幣"]}, "latitude": "22.3724774", "longitude": "114.11760900000001"}, {"@id": "206086", "region": "香港", "area": "新界", "district": "荃灣", "ob_name": "中國銀行(香港)有限公司", "addr": "新界荃灣青山公路荃灣段201-207號新青大廈地下及一樓", "supp_tran": {"tran_name": ["現金提款, 轉賬, 結餘查詢, 更改私人密碼及其他基本服務", "強積金", "賬單繳費, 信用卡繳費, 慈善捐款", "PLUS", "JCB", "銀聯", "CIRRUS", "FISC"]}, "currencies": {"currency": "港幣"}, "latitude": "22.3724774", "longitude": "114.11760900000001"}, {"@id": "1685", "region": "香港", "area": "新界", "district": "荃灣", "ob_name": "中國銀行(香港)有限公司", "addr": "荃灣楊屋道1號荃新天地地下65號舖", "supp_tran": {"tran_name": ["現金提款, 轉賬, 結餘查詢, 更改私人密碼及其他基本服務", "強積金", "賬單繳費, 信用卡繳費, 慈善捐款", "PLUS", "JCB", "銀聯", "CIRRUS", "FISC"]}, "currencies": {"currency": ["港幣", "人民幣"]}, "latitude": "22.369508", "longitude": "114.113671"}, {"@id": "274855", "region": "香港", "area": "新界", "district": "荃灣", "ob_name": "中國銀行(香港)有限公司", "addr": "新界荃灣楊屋道1號荃新天地地下65及67-69號舖", "supp_tran": {"tran_name": ["現金提款, 轉賬, 結餘查詢, 更改私人密碼及其他基本服務", "強積金", "賬單繳費, 信用卡繳費, 慈善捐款", "PLUS", "JCB", "銀聯", "CIRRUS"]}, "currencies": {"currency": "港幣"}, "latitude": "22.3701598", "longitude": "114.11410130000001"}, {"@id": "1686", "region": "香港", "area": "新界", "district": "荃灣", "ob_name": "中國銀行(香港)有限公司", "addr": "荃灣楊屋道1號荃新天地地下65號舖", "supp_tran": {"tran_name": ["現金提款, 轉賬, 結餘查詢, 更改私人密碼及其他基本服務", "強積金", "賬單繳費, 信用卡繳費, 慈善捐款", "PLUS", "JCB", "銀聯", "CIRRUS", "FISC"]}, "currencies": {"currency": "港幣"}, "latitude": "22.369508", "longitude": "114.113671"}, {"@id": "1687", "region": "香港", "area": "新界", "district": "荃灣", "ob_name": "中國銀行(香港)有限公司", "addr": "新界荃灣海盛路24號祈德尊新邨商場1-3號", "supp_tran": {"tran_name": ["現金提款, 轉賬, 結餘查詢, 更改私人密碼及其他基本服務", "強積金", "賬單繳費, 信用卡繳費, 慈善捐款", "PLUS", "JCB", "銀聯", "CIRRUS", "FISC"]}, "currencies": {"currency": ["港幣", "人民幣"]}, "latitude": "22.370026771160934", "longitude": "114.11098301410675"}, {"@id": "1688", "region": "香港", "area": "新界", "district": "荃灣", "ob_name": "中國銀行(香港)有限公司", "addr": "荃灣海盛路24號祈德尊新邨商場1-3號", "supp_tran": {"tran_name": ["現金提款, 轉賬, 結餘查詢, 更改私人密碼及其他基本服務", "強積金", "賬單繳費, 信用卡繳費, 慈善捐款", "PLUS", "JCB", "銀聯", "CIRRUS", "FISC"]}, "currencies": {"currency": ["港幣", "人民幣"]}, "latitude": "22.370113583736142", "longitude": "114.11100447177887"}, {"@id": "238431", "region": "香港", "area": "新界", "district": "荃灣", "ob_name": "東亞銀行有限公司", "addr": "新界荃灣沙咀道297-313號眾安大廈地下5號鋪", "supp_tran": {"tran_name": ["現金提款, 轉賬, 結餘查詢, 更改私人密碼及其他基本服務", "強積金", "跨行轉賬", "賬單繳費, 信用卡繳費, 慈善捐款", "PLUS", "JCB", "銀聯", "CIRRUS", "Diners Club", "FISC", "Discover"]}, "currencies": {"currency": "港幣"}, "latitude": "22.369104", "longitude": "114.118255"}, {"@id": "33262", "region": "香港", "area": "新界", "district": "荃灣", "ob_name": "東亞銀行有限公司", "addr": "新界荃灣青山公路210號富華中心2樓B號", "supp_tran": {"tran_name": ["現金提款, 轉賬, 結餘查詢, 更改私人密碼及其他基本服務", "強積金", "跨行轉賬", "賬單繳費, 信用卡繳費, 慈善捐款", "PLUS", "JCB", "銀聯", "CIRRUS", "Diners Club", "FISC", "Discover"]}, "currencies": {"currency": "港幣"}, "latitude": "22.372588959529125", "longitude": "114.11820888519287"}, {"@id": "30583", "region": "香港", "area": "新界", "district": "荃灣", "ob_name": "東亞銀行有限公司", "addr": "荃灣青山道210號富華中心1樓1B舖", "supp_tran": {"tran_name": ["現金提款, 轉賬, 結餘查詢, 更改私人密碼及其他基本服務", "強積金", "跨行轉賬", "賬單繳費, 信用卡繳費, 慈善捐款", "PLUS", "JCB", "銀聯", "CIRRUS", "Diners Club", "FISC", "Discover"]}, "currencies": {"currency": ["港幣", "人民幣"]}, "latitude": "22.372698093320516", "longitude": "114.11819815635681"}, {"@id": "30582", "region": "香港", "area": "新界", "district": "荃灣", "ob_name": "東亞銀行有限公司", "addr": "荃灣青山道210號富華中心1樓1B舖", "supp_tran": {"tran_name": ["現金提款, 轉賬, 結餘查詢, 更改私人密碼及其他基本服務", "強積金", "跨行轉賬", "賬單繳費, 信用卡繳費, 慈善捐款", "PLUS", "JCB", "銀聯", "CIRRUS", "Diners Club", "FISC", "Discover"]}, "currencies": {"currency": "港幣"}, "latitude": "22.372703053945372", "longitude": "114.11821961402893"}, {"@id": "30581", "region": "香港", "area": "新界", "district": "荃灣", "ob_name": "東亞銀行有限公司", "addr": "荃灣青山道210號富華中心1樓1B舖", "supp_tran": {"tran_name": ["現金提款, 轉賬, 結餘查詢, 更改私人密碼及其他基本服務", "強積金", "跨行轉賬", "賬單繳費, 信用卡繳費, 慈善捐款", "PLUS", "JCB", "銀聯", "CIRRUS", "Diners Club", "FISC", "Discover"]}, "currencies": {"currency": "港幣"}, "latitude": "22.372673290193624", "longitude": "114.11819279193878"}, {"@id": "98221", "region": "香港", "area": "新界", "district": "荃灣", "ob_name": "東亞銀行有限公司", "addr": "荃灣青山道210號富華中心1樓1B舖", "supp_tran": {"tran_name": ["現金提款, 轉賬, 結餘查詢, 更改私人密碼及其他基本服務", "強積金", "跨行轉賬", "賬單繳費, 信用卡繳費, 慈善捐款", "PLUS", "JCB", "銀聯", "CIRRUS", "Diners Club", "FISC", "Discover"]}, "currencies": {"currency": "港幣"}, "latitude": "22.3366713", "longitude": "114.1586273"}, {"@id": "1678", "region": "香港", "area": "新界", "district": "荃灣", "ob_name": "東亞銀行有限公司", "addr": "荃灣大霸街4至30號荃灣廣場地庫一層近30號扶手電梯側", "supp_tran": {"tran_name": ["現金提款, 轉賬, 結餘查詢, 更改私人密碼及其他基本服務", "強積金", "跨行轉賬", "賬單繳費, 信用卡繳費, 慈善捐款", "PLUS", "JCB", "銀聯", "CIRRUS", "Diners Club", "FISC", "Discover"]}, "currencies": {"currency": "港幣"}, "latitude": "22.371006509939036", "longitude": "114.11153823137283"}, {"@id": "1704", "region": "香港", "area": "新界", "district": "荃灣", "ob_name": "星展銀行(香港)有限公司", "addr": "荃灣眾安街23號地下", "supp_tran": {"tran_name": ["現金提款, 轉賬, 結餘查詢, 更改私人密碼及其他基本服務", "賬單繳費, 信用卡繳費, 慈善捐款", "PLUS", "銀聯", "CIRRUS"]}, "currencies": {"currency": ["港幣", "人民幣"]}, "latitude": "22.371400883855227", "longitude": "114.11776900291443"}, {"@id": "1728", "region": "香港", "area": "新界", "district": "荃灣", "ob_name": "招商永隆銀行有限公司", "addr": "荃灣沙咀道251號", "supp_tran": {"tran_name": ["現金提款, 轉賬, 結餘查詢, 更改私人密碼及其他基本服務", "強積金", "跨行轉賬", "賬單繳費, 信用卡繳費, 慈善捐款", "PLUS", "JCB", "銀聯", "CIRRUS"]}, "currencies": {"currency": ["港幣", "人民幣"]}, "latitude": "22.37003669260084", "longitude": "114.1161972284317"}, {"@id": "1715", "region": "香港", "area": "新界", "district": "荃灣", "ob_name": "上海商業銀行", "addr": "荃灣青山公路405號", "supp_tran": {"tran_name": ["現金提款, 轉賬, 結餘查詢, 更改私人密碼及其他基本服務", "強積金", "跨行轉賬", "賬單繳費, 信用卡繳費, 慈善捐款", "PLUS", "JCB", "銀聯", "CIRRUS", "FISC"]}, "currencies": {"currency": ["港幣", "人民幣"]}, "latitude": "22.374724493856835", "longitude": "114.11274790763855"}, {"@id": "1716", "region": "香港", "area": "新界", "district": "荃灣", "ob_name": "上海商業銀行", "addr": "荃灣德士古道36-60號東亞商場B128-131號", "supp_tran": {"tran_name": ["現金提款, 轉賬, 結餘查詢, 更改私人密碼及其他基本服務", "強積金", "跨行轉賬", "賬單繳費, 信用卡繳費, 慈善捐款", "PLUS", "JCB", "銀聯", "CIRRUS", "FISC"]}, "currencies": {"currency": ["港幣", "人民幣"]}, "latitude": "22.368044949363497", "longitude": "114.12192106246948"}, {"@id": "1674", "region": "香港", "area": "新界", "district": "荃灣", "ob_name": "交通銀行股份有限公司", "addr": "新界荃灣沙咀道328號寶石大廈地下G9B-G11號舖", "supp_tran": {"tran_name": ["現金提款, 轉賬, 結餘查詢, 更改私人密碼及其他基本服務", "強積金", "跨行轉賬", "賬單繳費, 信用卡繳費, 慈善捐款", "PLUS", "銀聯", "CIRRUS"]}, "currencies": {"currency": ["港幣", "人民幣"]}, "latitude": "22.368880840094825", "longitude": "114.11806672811508"}, {"@id": "38678", "region": "香港", "area": "新界", "district": "荃灣", "ob_name": "交通銀行股份有限公司", "addr": "荃灣楊屋道 8 號 如心廣場 1 樓 8 號 舖", "supp_tran": {"tran_name": ["現金提款, 轉賬, 結餘查詢, 更改私人密碼及其他基本服務", "強積金", "跨行轉賬", "賬單繳費, 信用卡繳費, 慈善捐款", "PLUS", "銀聯", "CIRRUS"]}, "currencies": {"currency": ["港幣", "人民幣"]}, "latitude": "22.368545988327234", "longitude": "114.11301076412201"}, {"@id": "38679", "region": "香港", "area": "新界", "district": "荃灣", "ob_name": "交通銀行股份有限公司", "addr": "荃灣楊屋道 8 號 如心廣場 1 樓 8 號 舖", "supp_tran": {"tran_name": ["現金提款, 轉賬, 結餘查詢, 更改私人密碼及其他基本服務", "強積金", "跨行轉賬", "賬單繳費, 信用卡繳費, 慈善捐款", "PLUS", "銀聯", "CIRRUS"]}, "currencies": {"currency": ["港幣", "人民幣"]}, "latitude": "22.368580713733152", "longitude": "114.11292225122452"}, {"@id": "1675", "region": "香港", "area": "新界", "district": "荃灣", "ob_name": "交通銀行股份有限公司", "addr": "新界荃灣荃灣街市街49-55號地下", "supp_tran": {"tran_name": ["現金提款, 轉賬, 結餘查詢, 更改私人密碼及其他基本服務", "強積金", "跨行轉賬", "賬單繳費, 信用卡繳費, 慈善捐款", "PLUS", "銀聯", "CIRRUS"]}, "currencies": {"currency": ["港幣", "人民幣"]}, "latitude": "22.371383521505074", "longitude": "114.11766976118088"}, {"@id": "1676", "region": "香港", "area": "新界", "district": "荃灣", "ob_name": "交通銀行股份有限公司", "addr": "新界荃灣沙咀道120-130號光明大廈地下3-5號舖", "supp_tran": {"tran_name": ["現金提款, 轉賬, 結餘查詢, 更改私人密碼及其他基本服務", "強積金", "跨行轉賬", "賬單繳費, 信用卡繳費, 慈善捐款", "PLUS", "銀聯", "CIRRUS"]}, "currencies": {"currency": ["港幣", "人民幣"]}, "latitude": "22.372400455506096", "longitude": "114.11155164241791"}, {"@id": "1701", "region": "香港", "area": "新界", "district": "荃灣", "ob_name": "集友銀行有限公司", "addr": "新界荃灣麗城花園麗城廣場地下5號A", "supp_tran": {"tran_name": ["現金提款, 轉賬, 結餘查詢, 更改私人密碼及其他基本服務", "強積金", "賬單繳費, 信用卡繳費, 慈善捐款", "PLUS", "JCB", "銀聯", "CIRRUS"]}, "currencies": {"currency": ["港幣", "人民幣"]}, "latitude": "22.371408324861783", "longitude": "114.09975528717041"}, {"@id": "1700", "region": "香港", "area": "新界", "district": "荃灣", "ob_name": "集友銀行有限公司", "addr": "新界荃灣沙咀道 131 - 135 號地下", "supp_tran": {"tran_name": ["現金提款, 轉賬, 結餘查詢, 更改私人密碼及其他基本服務", "強積金", "賬單繳費, 信用卡繳費, 慈善捐款", "PLUS", "JCB", "銀聯", "CIRRUS", "FISC"]}, "currencies": {"currency": ["港幣", "人民幣"]}, "latitude": "22.37617048746287", "longitude": "114.11179840564728"}, {"@id": "1705", "region": "香港", "area": "新界", "district": "荃灣", "ob_name": "大新銀行有限公司", "addr": "荃灣大河道14-16號登發大廈", "supp_tran": {"tran_name": ["現金提款, 轉賬, 結餘查詢, 更改私人密碼及其他基本服務", "強積金", "跨行轉賬", "賬單繳費, 信用卡繳費, 慈善捐款", "PLUS", "銀聯", "CIRRUS"]}, "currencies": {"currency": "港幣"}, "latitude": "22.37249470754951", "longitude": "114.11639302968979"}, {"@id": "1706", "region": "香港", "area": "新界", "district": "荃灣", "ob_name": "大新銀行有限公司", "addr": "荃灣沙咀道288號地下", "supp_tran": {"tran_name": ["現金提款, 轉賬, 結餘查詢, 更改私人密碼及其他基本服務", "強積金", "跨行轉賬", "賬單繳費, 信用卡繳費, 慈善捐款", "PLUS", "銀聯", "CIRRUS"]}, "currencies": {"currency": "港幣"}, "latitude": "22.369453806806913", "longitude": "114.1169884800911"}, {"@id": "119580", "region": "香港", "area": "新界", "district": "荃灣", "ob_name": "南洋商業銀行有限公司", "addr": "新界荃灣街巿街21-25號地下AB舖", "supp_tran": {"tran_name": ["現金提款, 轉賬, 結餘查詢, 更改私人密碼及其他基本服務", "強積金", "賬單繳費, 信用卡繳費, 慈善捐款", "PLUS", "JCB", "銀聯", "CIRRUS", "FISC"]}, "currencies": {"currency": ["港幣", "人民幣"]}, "latitude": "22.37272785706696", "longitude": "114.11825180053711"}, {"@id": "125592", "region": "香港", "area": "新界", "district": "荃灣", "ob_name": "南洋商業銀行有限公司", "addr": "新界荃灣眾安街74-78號地下", "supp_tran": {"tran_name": ["現金提款, 轉賬, 結餘查詢, 更改私人密碼及其他基本服務", "強積金", "賬單繳費, 信用卡繳費, 慈善捐款", "PLUS", "JCB", "銀聯", "CIRRUS", "FISC"]}, "currencies": {"currency": ["港幣", "人民幣"]}, "latitude": "22.370133426602876", "longitude": "114.11717355251312"}, {"@id": "1709", "region": "香港", "area": "新界", "district": "荃灣", "ob_name": "中國工商銀行(亞洲)有限公司", "addr": "荃灣沙咀道297-313號眾安大廈地下4號舖", "supp_tran": {"tran_name": ["現金提款, 轉賬, 結餘查詢, 更改私人密碼及其他基本服務", "跨行轉賬", "賬單繳費, 信用卡繳費, 慈善捐款", "JCB", "銀聯", "CIRRUS"]}, "currencies": {"currency": ["港幣", "人民幣"]}, "latitude": "22.369101593782617", "longitude": "114.11791920661926"}, {"@id": "1710", "region": "香港", "area": "新界", "district": "荃灣", "ob_name": "中國工商銀行(亞洲)有限公司", "addr": "荃灣青山道423-427號地下", "supp_tran": {"tran_name": ["現金提款, 轉賬, 結餘查詢, 更改私人密碼及其他基本服務", "跨行轉賬", "賬單繳費, 信用卡繳費, 慈善捐款", "JCB", "銀聯", "CIRRUS"]}, "currencies": {"currency": ["港幣", "人民幣"]}, "latitude": "22.3748584287158", "longitude": "114.11230266094208"}, {"@id": "35970", "region": "香港", "area": "新界", "district": "荃灣", "ob_name": "中國工商銀行(亞洲)有限公司", "addr": "新界荃灣荃威花園巴士總站旁", "supp_tran": {"tran_name": ["現金提款, 轉賬, 結餘查詢, 更改私人密碼及其他基本服務", "跨行轉賬", "賬單繳費, 信用卡繳費, 慈善捐款", "JCB", "銀聯", "CIRRUS"]}, "currencies": {"currency": ["港幣", "人民幣"]}, "latitude": "22.37712538066443", "longitude": "114.10395830869675"}, {"@id": "71766", "region": "香港", "area": "新界", "district": "荃灣", "ob_name": "中國工商銀行(亞洲)有限公司", "addr": "新界荃灣荃灣中心2期商場閣樓M1號舖", "supp_tran": {"tran_name": ["現金提款, 轉賬, 結餘查詢, 更改私人密碼及其他基本服務", "跨行轉賬", "賬單繳費, 信用卡繳費, 慈善捐款", "JCB", "銀聯", "CIRRUS"]}, "currencies": {"currency": ["港幣", "人民幣"]}, "latitude": "22.37872016171404", "longitude": "114.10766780376434"}, {"@id": "162125", "region": "香港", "area": "新界", "district": "荃灣", "ob_name": "中國工商銀行(亞洲)有限公司", "addr": "荃灣石圍角邨石圍角商場2樓ATM NO.1", "supp_tran": {"tran_name": ["現金提款, 轉賬, 結餘查詢, 更改私人密碼及其他基本服務", "跨行轉賬", "賬單繳費, 信用卡繳費, 慈善捐款", "JCB", "銀聯", "CIRRUS"]}, "currencies": {"currency": ["港幣", "人民幣"]}, "latitude": "22.375923562784066", "longitude": "114.12303261918794"}, {"@id": "241790", "region": "香港", "area": "新界", "district": "荃灣", "ob_name": "中國工商銀行(亞洲)有限公司", "addr": "新界荃灣青山公路635號麗城薈三期地下", "supp_tran": {"tran_name": ["現金提款, 轉賬, 結餘查詢, 更改私人密碼及其他基本服務", "跨行轉賬", "賬單繳費, 信用卡繳費, 慈善捐款", "JCB", "銀聯", "CIRRUS"]}, "currencies": {"currency": ["港幣", "人民幣"]}, "latitude": "22.371754", "longitude": "114.101965"}, {"@id": "95185", "region": "香港", "area": "新界", "district": "荃灣", "ob_name": "中國工商銀行(亞洲)有限公司", "addr": "荃灣荃華街3號悅來坊地下G38號鋪", "supp_tran": {"tran_name": ["現金提款, 轉賬, 結餘查詢, 更改私人密碼及其他基本服務", "跨行轉賬", "賬單繳費, 信用卡繳費, 慈善捐款", "JCB", "銀聯", "CIRRUS"]}, "currencies": {"currency": ["港幣", "人民幣"]}, "latitude": "22.368988", "longitude": "114.120796"}, {"@id": "95186", "region": "香港", "area": "新界", "district": "荃灣", "ob_name": "中國工商銀行(亞洲)有限公司", "addr": "荃灣荃華街3號悅來坊地下G38號鋪", "supp_tran": {"tran_name": ["現金提款, 轉賬, 結餘查詢, 更改私人密碼及其他基本服務", "跨行轉賬", "賬單繳費, 信用卡繳費, 慈善捐款", "JCB", "銀聯", "CIRRUS"]}, "currencies": {"currency": ["港幣", "人民幣"]}, "latitude": "22.368988", "longitude": "114.120796"}, {"@id": "1707", "region": "香港", "area": "新界", "district": "荃灣", "ob_name": "富邦銀行(香港)有限公司", "addr": "荃灣大河道22-28號榮安大廈地下", "supp_tran": {"tran_name": ["現金提款, 轉賬, 結餘查詢, 更改私人密碼及其他基本服務", "強積金", "跨行轉賬", "賬單繳費, 信用卡繳費, 慈善捐款", "PLUS", "銀聯", "CIRRUS"]}, "currencies": {"currency": ["港幣", "人民幣"]}, "latitude": "22.372318604995556", "longitude": "114.11611139774323"}, {"@id": "77492", "region": "香港", "area": "新界", "district": "荃灣", "ob_name": "花旗銀行(香港)有限公司", "addr": "荃灣楊屋道18號荃新天地2期地下G16鋪", "supp_tran": {"tran_name": ["現金提款, 轉賬, 結餘查詢, 更改私人密碼及其他基本服務", "賬單繳費, 信用卡繳費, 慈善捐款", "PLUS", "銀聯", "CIRRUS"]}, "currencies": {"currency": ["港幣", "人民幣"]}, "latitude": "22.367948", "longitude": "114.114432"}, {"@id": "225324", "region": "香港", "area": "新界", "district": "荃灣", "ob_name": "花旗銀行(香港)有限公司", "addr": "荃灣眾安街10-12號", "supp_tran": {"tran_name": ["現金提款, 轉賬, 結餘查詢, 更改私人密碼及其他基本服務", "賬單繳費, 信用卡繳費, 慈善捐款", "PLUS", "銀聯", "CIRRUS"]}, "currencies": {"currency": ["港幣", "人民幣"]}, "latitude": "22.37164912796055", "longitude": "114.11807549570085"}, {"@id": "225325", "region": "香港", "area": "新界", "district": "荃灣", "ob_name": "花旗銀行(香港)有限公司", "addr": "荃灣眾安街10-12號", "supp_tran": {"tran_name": ["現金提款, 轉賬, 結餘查詢, 更改私人密碼及其他基本服務", "賬單繳費, 信用卡繳費, 慈善捐款", "PLUS", "銀聯", "CIRRUS"]}, "currencies": {"currency": ["港幣", "人民幣"]}, "latitude": "22.37166028945033", "longitude": "114.11805269692422"}, {"@id": "12340", "region": "香港", "area": "新界", "district": "荃灣", "ob_name": "花旗銀行(香港)有限公司", "addr": "荃灣楊屋道18號荃新天地2期地下G16鋪", "supp_tran": {"tran_name": ["現金提款, 轉賬, 結餘查詢, 更改私人密碼及其他基本服務", "賬單繳費, 信用卡繳費, 慈善捐款", "PLUS", "銀聯", "CIRRUS"]}, "currencies": {"currency": ["港幣", "人民幣"]}, "latitude": "22.3687288", "longitude": "114.1143441"}]}}}