{"xml_msg": {"@query": "region=2,area=2,district=27,transaction=1", "supp_cb": null, "atms": {"atm": [{"@id": "937", "region": "香港", "area": "九龍", "district": "九龍塘", "ob_name": "渣打銀行(香港)有限公司", "addr": "九龍塘又一城G08號", "supp_tran": {"tran_name": ["現金提款, 轉賬, 結餘查詢, 更改私人密碼及其他基本服務", "賬單繳費, 信用卡繳費, 慈善捐款", "PLUS", "銀聯", "CIRRUS"]}, "currencies": {"currency": ["港幣", "人民幣"]}, "latitude": "22.33722", "longitude": "114.174587"}, {"@id": "931", "region": "香港", "area": "九龍", "district": "九龍塘", "ob_name": "中國銀行(香港)有限公司", "addr": "九龍塘達之路香港城市大學", "supp_tran": {"tran_name": ["現金提款, 轉賬, 結餘查詢, 更改私人密碼及其他基本服務", "強積金", "賬單繳費, 信用卡繳費, 慈善捐款", "PLUS", "JCB", "銀聯", "CIRRUS", "FISC"]}, "currencies": {"currency": ["港幣", "人民幣"]}, "latitude": "22.33673884223814", "longitude": "114.17352676391602"}, {"@id": "933", "region": "香港", "area": "九龍", "district": "九龍塘", "ob_name": "中國銀行(香港)有限公司", "addr": "港鐵九龍塘站", "supp_tran": {"tran_name": ["現金提款, 轉賬, 結餘查詢, 更改私人密碼及其他基本服務", "強積金", "賬單繳費, 信用卡繳費, 慈善捐款", "PLUS", "JCB", "銀聯", "CIRRUS", "FISC"]}, "currencies": {"currency": ["港幣", "人民幣"]}, "latitude": "22.336676818406293", "longitude": "114.17592465877533"}, {"@id": "928", "region": "香港", "area": "九龍", "district": "九龍塘", "ob_name": "東亞銀行有限公司", "addr": "九龍塘達之路80號又一城MTR07號", "supp_tran": {"tran_name": ["現金提款, 轉賬, 結餘查詢, 更改私人密碼及其他基本服務", "強積金", "跨行轉賬", "賬單繳費, 信用卡繳費, 慈善捐款", "PLUS", "JCB", "銀聯", "CIRRUS", "Diners Club", "FISC", "Discover"]}, "currencies": {"currency": ["港幣", "人民幣"]}, "latitude": "22.337026632456944", "longitude": "114.17427778244019"}, {"@id": "30594", "region": "香港", "area": "九龍", "district": "九龍塘", "ob_name": "東亞銀行有限公司", "addr": "九龍塘達之路80號又一城MTR07號", "supp_tran": {"tran_name": ["現金提款, 轉賬, 結餘查詢, 更改私人密碼及其他基本服務", "強積金", "跨行轉賬", "賬單繳費, 信用卡繳費, 慈善捐款", "PLUS", "JCB", "銀聯", "CIRRUS", "Diners Club", "FISC", "Discover"]}, "currencies": {"currency": "港幣"}, "latitude": "22.33722", "longitude": "114.174587"}, {"@id": "929", "region": "香港", "area": "九龍", "district": "九龍塘", "ob_name": "東亞銀行有限公司", "addr": "九龍塘浸會大學道9號香港浸會大學賽馬會師生活動中心地下G02室", "supp_tran": {"tran_name": ["現金提款, 轉賬, 結餘查詢, 更改私人密碼及其他基本服務", "強積金", "跨行轉賬", "賬單繳費, 信用卡繳費, 慈善捐款", "PLUS", "JCB", "銀聯", "CIRRUS", "Diners Club", "FISC", "Discover"]}, "currencies": {"currency": "港幣"}, "latitude": "22.336068983394274", "longitude": "114.18286085128784"}, {"@id": "86221", "region": "香港", "area": "九龍", "district": "九龍塘", "ob_name": "星展銀行(香港)有限公司", "addr": "九龍塘達之路80號又一城LG2 樓LG2-27號舖", "supp_tran": {"tran_name": ["現金提款, 轉賬, 結餘查詢, 更改私人密碼及其他基本服務", "賬單繳費, 信用卡繳費, 慈善捐款", "PLUS", "銀聯", "CIRRUS"]}, "currencies": {"currency": ["港幣", "人民幣"]}, "latitude": "22.33730449831152", "longitude": "114.17458891868591"}, {"@id": "225326", "region": "香港", "area": "九龍", "district": "九龍塘", "ob_name": "星展銀行(香港)有限公司", "addr": "港鐵九龍塘站東鐵綫月台層自動櫃員機機位 KOT ATM 29", "supp_tran": {"tran_name": ["現金提款, 轉賬, 結餘查詢, 更改私人密碼及其他基本服務", "賬單繳費, 信用卡繳費, 慈善捐款", "PLUS", "銀聯", "CIRRUS"]}, "currencies": {"currency": ["港幣", "人民幣"]}, "latitude": "22.336905990611207", "longitude": "114.17583105620576"}, {"@id": "936", "region": "香港", "area": "九龍", "district": "九龍塘", "ob_name": "上海商業銀行", "addr": "九龍塘聯合道320號建新中心G28號", "supp_tran": {"tran_name": ["現金提款, 轉賬, 結餘查詢, 更改私人密碼及其他基本服務", "強積金", "跨行轉賬", "賬單繳費, 信用卡繳費, 慈善捐款", "PLUS", "JCB", "銀聯", "CIRRUS", "FISC"]}, "currencies": {"currency": ["港幣", "人民幣"]}, "latitude": "22.339190001983738", "longitude": "114.18085992336273"}, {"@id": "137821", "region": "香港", "area": "九龍", "district": "九龍塘", "ob_name": "花旗銀行(香港)有限公司", "addr": "九龍塘達之路80號又一城商場LG2-57號舖", "supp_tran": {"tran_name": ["現金提款, 轉賬, 結餘查詢, 更改私人密碼及其他基本服務", "賬單繳費, 信用卡繳費, 慈善捐款", "PLUS", "銀聯", "CIRRUS"]}, "currencies": {"currency": ["港幣", "人民幣"]}, "latitude": "22.33664789520692", "longitude": "114.17565750555718"}, {"@id": "934", "region": "香港", "area": "九龍", "district": "九龍塘", "ob_name": "花旗銀行(香港)有限公司", "addr": "九龍塘達之路80號又一城商場LG2-57號舖", "supp_tran": {"tran_name": ["現金提款, 轉賬, 結餘查詢, 更改私人密碼及其他基本服務", "賬單繳費, 信用卡繳費, 慈善捐款", "PLUS", "銀聯", "CIRRUS"]}, "currencies": {"currency": ["港幣", "人民幣"]}, "latitude": "22.337036556247", "longitude": "114.17420268058777"}, {"@id": "134734", "region": "香港", "area": "九龍", "district": "九龍塘", "ob_name": "花旗銀行(香港)有限公司", "addr": "九龍九龍塘達之路80號又一城商場301A舖", "supp_tran": {"tran_name": ["現金提款, 轉賬, 結餘查詢, 更改私人密碼及其他基本服務", "賬單繳費, 信用卡繳費, 慈善捐款", "PLUS", "銀聯", "CIRRUS"]}, "currencies": {"currency": ["港幣", "人民幣"]}, "latitude": "22.3365827", "longitude": "114.1750379"}]}}}