{"xml_msg": {"@query": "region=2,area=1,district=8,transaction=575", "supp_cb": null, "atms": {"atm": [{"@id": "590", "region": "香港", "area": "香港", "district": "北角", "ob_name": "中國銀行(香港)有限公司", "addr": "北角芵皇道131-133號", "supp_tran": {"tran_name": ["現金提款, 轉賬, 結餘查詢, 更改私人密碼及其他基本服務", "強積金", "賬單繳費, 信用卡繳費, 慈善捐款", "PLUS", "JCB", "銀聯", "CIRRUS", "FISC"]}, "currencies": {"currency": ["港幣", "人民幣"]}, "latitude": "22.287619740226813", "longitude": "114.19290840625763"}, {"@id": "35979", "region": "香港", "area": "香港", "district": "北角", "ob_name": "中國銀行(香港)有限公司", "addr": "香港北角英皇道193-209號英皇中心地下7號及17號舖", "supp_tran": {"tran_name": ["現金提款, 轉賬, 結餘查詢, 更改私人密碼及其他基本服務", "強積金", "賬單繳費, 信用卡繳費, 慈善捐款", "PLUS", "JCB", "銀聯", "CIRRUS", "FISC"]}, "currencies": {"currency": ["港幣", "人民幣"]}, "latitude": "22.28933467127099", "longitude": "114.19432461261749"}, {"@id": "38684", "region": "香港", "area": "香港", "district": "北角", "ob_name": "中國銀行(香港)有限公司", "addr": "香港北角英皇道193-209號", "supp_tran": {"tran_name": ["現金提款, 轉賬, 結餘查詢, 更改私人密碼及其他基本服務", "強積金", "賬單繳費, 信用卡繳費, 慈善捐款", "PLUS", "JCB", "銀聯", "CIRRUS", "FISC"]}, "currencies": {"currency": "港幣"}, "latitude": "22.289289998949187", "longitude": "114.19432461261749"}, {"@id": "591", "region": "香港", "area": "香港", "district": "北角", "ob_name": "中國銀行(香港)有限公司", "addr": "北角港鐵站", "supp_tran": {"tran_name": ["現金提款, 轉賬, 結餘查詢, 更改私人密碼及其他基本服務", "強積金", "賬單繳費, 信用卡繳費, 慈善捐款", "PLUS", "JCB", "銀聯", "CIRRUS", "FISC"]}, "currencies": {"currency": ["港幣", "人民幣"]}, "latitude": "22.290870894094166", "longitude": "114.20063316822052"}, {"@id": "592", "region": "香港", "area": "香港", "district": "北角", "ob_name": "中國銀行(香港)有限公司", "addr": "炮台山港鐵站", "supp_tran": {"tran_name": ["現金提款, 轉賬, 結餘查詢, 更改私人密碼及其他基本服務", "強積金", "賬單繳費, 信用卡繳費, 慈善捐款", "PLUS", "JCB", "銀聯", "CIRRUS", "FISC"]}, "currencies": {"currency": ["港幣", "人民幣"]}, "latitude": "22.28828238612015", "longitude": "114.19392764568329"}, {"@id": "593", "region": "香港", "area": "香港", "district": "北角", "ob_name": "中國銀行(香港)有限公司", "addr": "北角英皇道668號健康村二期1-2號", "supp_tran": {"tran_name": ["現金提款, 轉賬, 結餘查詢, 更改私人密碼及其他基本服務", "強積金", "賬單繳費, 信用卡繳費, 慈善捐款", "PLUS", "JCB", "銀聯", "CIRRUS", "FISC"]}, "currencies": {"currency": ["港幣", "人民幣"]}, "latitude": "22.29187352476248", "longitude": "114.20636236667633"}, {"@id": "134737", "region": "香港", "area": "香港", "district": "北角", "ob_name": "中國銀行(香港)有限公司", "addr": "北角英皇道480號地舖", "supp_tran": {"tran_name": ["現金提款, 轉賬, 結餘查詢, 更改私人密碼及其他基本服務", "強積金", "賬單繳費, 信用卡繳費, 慈善捐款", "PLUS", "JCB", "銀聯", "CIRRUS", "FISC"]}, "currencies": {"currency": ["港幣", "人民幣"]}, "latitude": "22.291063", "longitude": "114.201139"}, {"@id": "168262", "region": "香港", "area": "香港", "district": "北角", "ob_name": "中國銀行(香港)有限公司", "addr": "香港北角英皇道460-470號樂嘉中心地下5B及6號舖", "supp_tran": {"tran_name": ["現金提款, 轉賬, 結餘查詢, 更改私人密碼及其他基本服務", "強積金", "賬單繳費, 信用卡繳費, 慈善捐款", "PLUS", "JCB", "銀聯", "CIRRUS", "FISC"]}, "currencies": {"currency": ["港幣", "人民幣"]}, "latitude": "22.291082396789683", "longitude": "114.20079729325402"}, {"@id": "168263", "region": "香港", "area": "香港", "district": "北角", "ob_name": "中國銀行(香港)有限公司", "addr": "香港北角英皇道460-470號樂嘉中心地下5B及6號舖", "supp_tran": {"tran_name": ["現金提款, 轉賬, 結餘查詢, 更改私人密碼及其他基本服務", "強積金", "賬單繳費, 信用卡繳費, 慈善捐款", "PLUS", "JCB", "銀聯", "CIRRUS", "FISC"]}, "currencies": {"currency": "港幣"}, "latitude": "22.29097444000414", "longitude": "114.20083484418023"}, {"@id": "168266", "region": "香港", "area": "香港", "district": "北角", "ob_name": "中國銀行(香港)有限公司", "addr": "香港北角英皇道480號昌明洋樓地下B及C舖", "supp_tran": {"tran_name": ["現金提款, 轉賬, 結餘查詢, 更改私人密碼及其他基本服務", "強積金", "賬單繳費, 信用卡繳費, 慈善捐款", "PLUS", "JCB", "銀聯", "CIRRUS", "FISC"]}, "currencies": {"currency": ["港幣", "人民幣"]}, "latitude": "22.2910014", "longitude": "114.20122249999997"}, {"@id": "596", "region": "香港", "area": "香港", "district": "北角", "ob_name": "中國銀行(香港)有限公司", "addr": "香港北角英皇道318-328號B1舖", "supp_tran": {"tran_name": ["現金提款, 轉賬, 結餘查詢, 更改私人密碼及其他基本服務", "強積金", "賬單繳費, 信用卡繳費, 慈善捐款", "PLUS", "JCB", "銀聯", "CIRRUS", "FISC"]}, "currencies": {"currency": ["港幣", "人民幣"]}, "latitude": "22.290213224031657", "longitude": "114.1965240240097"}, {"@id": "597", "region": "香港", "area": "香港", "district": "北角", "ob_name": "中國銀行(香港)有限公司", "addr": "北角芵皇道131-133號", "supp_tran": {"tran_name": ["現金提款, 轉賬, 結餘查詢, 更改私人密碼及其他基本服務", "強積金", "賬單繳費, 信用卡繳費, 慈善捐款", "PLUS", "JCB", "銀聯", "CIRRUS", "FISC"]}, "currencies": {"currency": ["港幣", "人民幣"]}, "latitude": "22.28771653139591", "longitude": "114.19291913509369"}, {"@id": "598", "region": "香港", "area": "香港", "district": "北角", "ob_name": "中國銀行(香港)有限公司", "addr": "香港北角電氣道233號", "supp_tran": {"tran_name": ["現金提款, 轉賬, 結餘查詢, 更改私人密碼及其他基本服務", "強積金", "賬單繳費, 信用卡繳費, 慈善捐款", "PLUS", "JCB", "銀聯", "CIRRUS", "FISC"]}, "currencies": {"currency": ["港幣", "人民幣"]}, "latitude": "22.2890145193159", "longitude": "114.19331341981888"}, {"@id": "588", "region": "香港", "area": "香港", "district": "北角", "ob_name": "東亞銀行有限公司", "addr": "北角英皇道326至328號地下", "supp_tran": {"tran_name": ["現金提款, 轉賬, 結餘查詢, 更改私人密碼及其他基本服務", "強積金", "跨行轉賬", "賬單繳費, 信用卡繳費, 慈善捐款", "PLUS", "JCB", "銀聯", "CIRRUS", "Diners Club", "FISC", "Discover"]}, "currencies": {"currency": "港幣"}, "latitude": "22.29026285961604", "longitude": "114.19655621051788"}, {"@id": "251741", "region": "香港", "area": "香港", "district": "北角", "ob_name": "東亞銀行有限公司", "addr": "北角英皇道326-328號", "supp_tran": {"tran_name": ["現金提款, 轉賬, 結餘查詢, 更改私人密碼及其他基本服務", "強積金", "跨行轉賬", "賬單繳費, 信用卡繳費, 慈善捐款", "PLUS", "JCB", "銀聯", "CIRRUS", "Diners Club", "FISC", "Discover"]}, "currencies": {"currency": "港幣"}, "latitude": "22.290145", "longitude": "114.196418"}, {"@id": "617", "region": "香港", "area": "香港", "district": "北角", "ob_name": "上海商業銀行", "addr": "北角英皇道486號", "supp_tran": {"tran_name": ["現金提款, 轉賬, 結餘查詢, 更改私人密碼及其他基本服務", "強積金", "跨行轉賬", "賬單繳費, 信用卡繳費, 慈善捐款", "PLUS", "JCB", "銀聯", "CIRRUS", "FISC"]}, "currencies": {"currency": ["港幣", "人民幣"]}, "latitude": "22.291243158795684", "longitude": "114.20149683952332"}, {"@id": "77467", "region": "香港", "area": "香港", "district": "北角", "ob_name": "南洋商業銀行有限公司", "addr": "香港北角英皇道351號", "supp_tran": {"tran_name": ["現金提款, 轉賬, 結餘查詢, 更改私人密碼及其他基本服務", "強積金", "賬單繳費, 信用卡繳費, 慈善捐款", "PLUS", "JCB", "銀聯", "CIRRUS", "FISC"]}, "currencies": {"currency": ["港幣", "人民幣"]}, "latitude": "22.29064505302536", "longitude": "114.1974413394928"}]}}}