{"xml_msg": {"@query": "region=2,area=1,district=15,transaction=2", "supp_cb": null, "atms": {"atm": [{"@id": "693", "region": "香港", "area": "香港", "district": "上環", "ob_name": "中國建設銀行(亞洲)股份有限公司", "addr": "上環德輔道中237-239號寶軒地下A1-A2號舖", "supp_tran": {"tran_name": ["現金提款, 轉賬, 結餘查詢, 更改私人密碼及其他基本服務", "跨行轉賬", "賬單繳費, 信用卡繳費, 慈善捐款", "PLUS", "銀聯"]}, "currencies": {"currency": ["港幣", "人民幣"]}, "latitude": "22.286532696340302", "longitude": "114.15246069431305"}, {"@id": "689", "region": "香港", "area": "香港", "district": "上環", "ob_name": "東亞銀行有限公司", "addr": "上環德輔道中181號地下", "supp_tran": {"tran_name": ["現金提款, 轉賬, 結餘查詢, 更改私人密碼及其他基本服務", "強積金", "跨行轉賬", "賬單繳費, 信用卡繳費, 慈善捐款", "PLUS", "JCB", "銀聯", "CIRRUS", "Diners Club", "FISC", "Discover"]}, "currencies": {"currency": "港幣"}, "latitude": "22.285914715567667", "longitude": "114.15402442216873"}, {"@id": "309229", "region": "香港", "area": "香港", "district": "上環", "ob_name": "東亞銀行有限公司", "addr": "上環般含道19-27號嘉富大廈1-3號", "supp_tran": {"tran_name": ["現金提款, 轉賬, 結餘查詢, 更改私人密碼及其他基本服務", "強積金", "跨行轉賬", "賬單繳費, 信用卡繳費, 慈善捐款", "PLUS", "JCB", "銀聯", "CIRRUS", "FISC", "Diners Club", "Discover"]}, "currencies": {"currency": ["港幣", "人民幣"]}, "latitude": "22.2846048", "longitude": "114.1424955"}, {"@id": "183821", "region": "香港", "area": "香港", "district": "上環", "ob_name": "東亞銀行有限公司", "addr": "香港上環干諾道中200號信德中心2樓 296A 及B號", "supp_tran": {"tran_name": ["現金提款, 轉賬, 結餘查詢, 更改私人密碼及其他基本服務", "強積金", "跨行轉賬", "賬單繳費, 信用卡繳費, 慈善捐款", "PLUS", "JCB", "銀聯", "CIRRUS", "Diners Club", "FISC", "Discover"]}, "currencies": {"currency": ["港幣", "人民幣"]}, "latitude": "22.2878529", "longitude": "114.15182930000003"}, {"@id": "183822", "region": "香港", "area": "香港", "district": "上環", "ob_name": "東亞銀行有限公司", "addr": "香港上環干諾道中200號信德中心2樓 296A 及B號", "supp_tran": {"tran_name": ["現金提款, 轉賬, 結餘查詢, 更改私人密碼及其他基本服務", "強積金", "跨行轉賬", "賬單繳費, 信用卡繳費, 慈善捐款", "PLUS", "JCB", "銀聯", "CIRRUS", "Diners Club", "FISC", "Discover"]}, "currencies": {"currency": "港幣"}, "latitude": "22.2878529", "longitude": "114.15182930000003"}, {"@id": "694", "region": "香港", "area": "香港", "district": "上環", "ob_name": "中信銀行(國際)有限公司", "addr": "上環德輔道中232號", "supp_tran": {"tran_name": ["現金提款, 轉賬, 結餘查詢, 更改私人密碼及其他基本服務", "跨行轉賬", "賬單繳費, 信用卡繳費, 慈善捐款", "銀聯"]}, "currencies": {"currency": ["港幣", "人民幣"]}, "latitude": "22.286269620522038", "longitude": "114.15258139371872"}, {"@id": "180722", "region": "香港", "area": "香港", "district": "上環", "ob_name": "招商永隆銀行有限公司", "addr": "上環德輔道中189-195號, 李寶椿大廈", "supp_tran": {"tran_name": ["現金提款, 轉賬, 結餘查詢, 更改私人密碼及其他基本服務", "強積金", "跨行轉賬", "賬單繳費, 信用卡繳費, 慈善捐款", "PLUS", "JCB", "銀聯", "CIRRUS"]}, "currencies": {"currency": ["港幣", "人民幣"]}, "latitude": "22.286213", "longitude": "114.15396800000008"}, {"@id": "703", "region": "香港", "area": "香港", "district": "上環", "ob_name": "上海商業銀行", "addr": "上環蘇杭街41-47號", "supp_tran": {"tran_name": ["現金提款, 轉賬, 結餘查詢, 更改私人密碼及其他基本服務", "強積金", "跨行轉賬", "賬單繳費, 信用卡繳費, 慈善捐款", "PLUS", "JCB", "銀聯", "CIRRUS", "FISC"]}, "currencies": {"currency": ["港幣", "人民幣"]}, "latitude": "22.284931897145732", "longitude": "114.15168821811676"}, {"@id": "698", "region": "香港", "area": "香港", "district": "上環", "ob_name": "大新銀行有限公司", "addr": "上環德輔道中288號易通商業大廈地下B2號鋪連1/F B室", "supp_tran": {"tran_name": ["現金提款, 轉賬, 結餘查詢, 更改私人密碼及其他基本服務", "強積金", "跨行轉賬", "賬單繳費, 信用卡繳費, 慈善捐款", "PLUS", "銀聯", "CIRRUS"]}, "currencies": {"currency": "港幣"}, "latitude": "22.286624524575394", "longitude": "114.15114641189575"}, {"@id": "701", "region": "香港", "area": "香港", "district": "上環", "ob_name": "南洋商業銀行有限公司", "addr": "上環干諾道西160號", "supp_tran": {"tran_name": ["現金提款, 轉賬, 結餘查詢, 更改私人密碼及其他基本服務", "強積金", "跨行轉賬", "賬單繳費, 信用卡繳費, 慈善捐款", "PLUS", "JCB", "銀聯", "CIRRUS"]}, "currencies": {"currency": ["港幣", "人民幣"]}, "latitude": "22.28820544986675", "longitude": "114.1397550702095"}, {"@id": "700", "region": "香港", "area": "香港", "district": "上環", "ob_name": "中國工商銀行(亞洲)有限公司", "addr": "上環德輔道中317-319號啟德商業大廈地下F舖", "supp_tran": {"tran_name": ["現金提款, 轉賬, 結餘查詢, 更改私人密碼及其他基本服務", "跨行轉賬", "賬單繳費, 信用卡繳費, 慈善捐款", "JCB", "銀聯", "CIRRUS"]}, "currencies": {"currency": ["港幣", "人民幣"]}, "latitude": "22.28739389390498", "longitude": "114.15068507194519"}, {"@id": "699", "region": "香港", "area": "香港", "district": "上環", "ob_name": "富邦銀行(香港)有限公司", "addr": "上環道中210號顏氏大廈地下", "supp_tran": {"tran_name": ["現金提款, 轉賬, 結餘查詢, 更改私人密碼及其他基本服務", "強積金", "跨行轉賬", "賬單繳費, 信用卡繳費, 慈善捐款", "PLUS", "銀聯", "CIRRUS"]}, "currencies": {"currency": ["港幣", "人民幣"]}, "latitude": "22.286143046131187", "longitude": "114.15314465761185"}]}}}