{"xml_msg": {"@query": "region=2,area=2,district=43,transaction=2", "supp_cb": null, "atms": {"atm": [{"@id": "68936", "region": "香港", "area": "九龍", "district": "油塘", "ob_name": "東亞銀行有限公司", "addr": "九龍油塘油美苑鯉魚門廣場地下自動櫃員機 3號", "supp_tran": {"tran_name": ["現金提款, 轉賬, 結餘查詢, 更改私人密碼及其他基本服務", "強積金", "跨行轉賬", "賬單繳費, 信用卡繳費, 慈善捐款", "PLUS", "JCB", "銀聯", "CIRRUS", "Diners Club", "FISC", "Discover"]}, "currencies": {"currency": ["港幣", "人民幣"]}, "latitude": "22.296422498800272", "longitude": "114.23956274986267"}, {"@id": "92187", "region": "香港", "area": "九龍", "district": "油塘", "ob_name": "東亞銀行有限公司", "addr": "油塘港鐵站自動櫃員機 ATM 2 (近B1出口往油麗邨/商場)", "supp_tran": {"tran_name": ["現金提款, 轉賬, 結餘查詢, 更改私人密碼及其他基本服務", "強積金", "跨行轉賬", "賬單繳費, 信用卡繳費, 慈善捐款", "PLUS", "JCB", "銀聯", "CIRRUS", "Diners Club", "FISC", "Discover"]}, "currencies": {"currency": "港幣"}, "latitude": "22.297931345643597", "longitude": "114.23686981201172"}, {"@id": "344318", "region": "香港", "area": "九龍", "district": "油塘", "ob_name": "創興銀行有限公司", "addr": "九龍油塘高超道38號大本型1樓123號舖", "supp_tran": {"tran_name": ["現金提款, 轉賬, 結餘查詢, 更改私人密碼及其他基本服務", "強積金", "跨行轉賬", "賬單繳費, 信用卡繳費, 慈善捐款", "銀聯"]}, "currencies": {"currency": "港幣"}, "latitude": "22.29646605247967", "longitude": "114.23859547976224"}, {"@id": "1306", "region": "香港", "area": "九龍", "district": "油塘", "ob_name": "創興銀行有限公司", "addr": "九龍油塘高超道38號大本型1樓123號舖", "supp_tran": {"tran_name": ["現金提款, 轉賬, 結餘查詢, 更改私人密碼及其他基本服務", "強積金", "跨行轉賬", "賬單繳費, 信用卡繳費, 慈善捐款", "銀聯"]}, "currencies": {"currency": "港幣"}, "latitude": "22.297213908994664", "longitude": "114.23908053372952"}, {"@id": "77455", "region": "香港", "area": "九龍", "district": "油塘", "ob_name": "中國工商銀行(亞洲)有限公司", "addr": "油塘油麗邨(四期)翠麗樓地下", "supp_tran": {"tran_name": ["現金提款, 轉賬, 結餘查詢, 更改私人密碼及其他基本服務", "跨行轉賬", "賬單繳費, 信用卡繳費, 慈善捐款", "JCB", "銀聯", "CIRRUS"]}, "currencies": {"currency": ["港幣", "人民幣"]}, "latitude": "22.299698263996408", "longitude": "114.23653721809387"}, {"@id": "231817", "region": "香港", "area": "九龍", "district": "油塘", "ob_name": "中國工商銀行(亞洲)有限公司", "addr": "九龍油塘高超道38號油塘大本型1樓", "supp_tran": {"tran_name": ["現金提款, 轉賬, 結餘查詢, 更改私人密碼及其他基本服務", "跨行轉賬", "賬單繳費, 信用卡繳費, 慈善捐款", "JCB", "銀聯", "CIRRUS"]}, "currencies": {"currency": ["港幣", "人民幣"]}, "latitude": "22.296212", "longitude": "114.238589"}]}}}