{"xml_msg": {"@query": "region=2,area=1,district=18,transaction=575", "supp_cb": null, "atms": {"atm": [{"@id": "780", "region": "香港", "area": "香港", "district": "西環", "ob_name": "中國銀行(香港)有限公司", "addr": "西環堅尼地城吉席街2-2F海怡花園", "supp_tran": {"tran_name": ["現金提款, 轉賬, 結餘查詢, 更改私人密碼及其他基本服務", "強積金", "賬單繳費, 信用卡繳費, 慈善捐款", "PLUS", "JCB", "銀聯", "CIRRUS", "FISC"]}, "currencies": {"currency": ["港幣", "人民幣"]}, "latitude": "22.283412982358403", "longitude": "114.12932395935059"}, {"@id": "781", "region": "香港", "area": "香港", "district": "西環", "ob_name": "中國銀行(香港)有限公司", "addr": "西環石塘咀皇后大道西534號", "supp_tran": {"tran_name": ["現金提款, 轉賬, 結餘查詢, 更改私人密碼及其他基本服務", "強積金", "賬單繳費, 信用卡繳費, 慈善捐款", "PLUS", "JCB", "銀聯", "CIRRUS", "FISC"]}, "currencies": {"currency": ["港幣", "人民幣"]}, "latitude": "22.286182755756336", "longitude": "114.1344764828682"}, {"@id": "782", "region": "香港", "area": "香港", "district": "西環", "ob_name": "中國銀行(香港)有限公司", "addr": "西環德輔道西386-388號", "supp_tran": {"tran_name": ["現金提款, 轉賬, 結餘查詢, 更改私人密碼及其他基本服務", "強積金", "賬單繳費, 信用卡繳費, 慈善捐款", "PLUS", "JCB", "銀聯", "CIRRUS", "FISC"]}, "currencies": {"currency": ["港幣", "人民幣"]}, "latitude": "22.2868751905317", "longitude": "114.13726061582565"}, {"@id": "779", "region": "香港", "area": "香港", "district": "西環", "ob_name": "東亞銀行有限公司", "addr": "香港石塘咀皇后大道西484-496號新安大樓地下I及J號", "supp_tran": {"tran_name": ["現金提款, 轉賬, 結餘查詢, 更改私人密碼及其他基本服務", "強積金", "跨行轉賬", "賬單繳費, 信用卡繳費, 慈善捐款", "PLUS", "JCB", "銀聯", "CIRRUS", "Diners Club", "FISC", "Discover"]}, "currencies": {"currency": ["港幣", "人民幣"]}, "latitude": "22.28375548419257", "longitude": "114.13068115711212"}, {"@id": "798", "region": "香港", "area": "香港", "district": "西環", "ob_name": "上海商業銀行", "addr": "西環卑路乍街57-61號地下2號舖", "supp_tran": {"tran_name": ["現金提款, 轉賬, 結餘查詢, 更改私人密碼及其他基本服務", "強積金", "跨行轉賬", "賬單繳費, 信用卡繳費, 慈善捐款", "PLUS", "JCB", "銀聯", "CIRRUS", "FISC"]}, "currencies": {"currency": ["港幣", "人民幣"]}, "latitude": "22.283328597719724", "longitude": "114.12815183401108"}, {"@id": "787", "region": "香港", "area": "香港", "district": "西環", "ob_name": "集友銀行有限公司", "addr": "香港皇后大道西443號", "supp_tran": {"tran_name": ["現金提款, 轉賬, 結餘查詢, 更改私人密碼及其他基本服務", "強積金", "跨行轉賬", "賬單繳費, 信用卡繳費, 慈善捐款", "PLUS", "JCB", "銀聯", "CIRRUS", "FISC"]}, "currencies": {"currency": ["港幣", "人民幣"]}, "latitude": "22.286130636871015", "longitude": "114.13513094186783"}, {"@id": "122590", "region": "香港", "area": "香港", "district": "西環", "ob_name": "南洋商業銀行有限公司", "addr": "香港德輔道西334號", "supp_tran": {"tran_name": ["現金提款, 轉賬, 結餘查詢, 更改私人密碼及其他基本服務", "強積金", "賬單繳費, 信用卡繳費, 慈善捐款", "PLUS", "JCB", "銀聯", "CIRRUS", "FISC"]}, "currencies": {"currency": ["港幣", "人民幣"]}, "latitude": "22.2869025", "longitude": "114.1504672"}]}}}