{"xml_msg": {"@query": "region=2,area=1,district=17,transaction=2", "supp_cb": null, "atms": {"atm": [{"@id": "730", "region": "香港", "area": "香港", "district": "灣仔", "ob_name": "中國建設銀行(亞洲)股份有限公司", "addr": "灣仔軒尼詩道139號", "supp_tran": {"tran_name": ["現金提款, 轉賬, 結餘查詢, 更改私人密碼及其他基本服務", "跨行轉賬", "賬單繳費, 信用卡繳費, 慈善捐款", "PLUS", "銀聯"]}, "currencies": {"currency": ["港幣", "人民幣"]}, "latitude": "22.277682156925422", "longitude": "114.17285621166229"}, {"@id": "731", "region": "香港", "area": "香港", "district": "灣仔", "ob_name": "中國建設銀行(亞洲)股份有限公司", "addr": "灣仔皇后大道東72-74號地下", "supp_tran": {"tran_name": ["現金提款, 轉賬, 結餘查詢, 更改私人密碼及其他基本服務", "跨行轉賬", "賬單繳費, 信用卡繳費, 慈善捐款", "PLUS", "銀聯"]}, "currencies": {"currency": ["港幣", "人民幣"]}, "latitude": "22.27659503577844", "longitude": "114.1694524884224"}, {"@id": "732", "region": "香港", "area": "香港", "district": "灣仔", "ob_name": "中國建設銀行(亞洲)股份有限公司", "addr": "灣仔港灣道23號鷹君中心一樓121-122號舖", "supp_tran": {"tran_name": ["現金提款, 轉賬, 結餘查詢, 更改私人密碼及其他基本服務", "跨行轉賬", "賬單繳費, 信用卡繳費, 慈善捐款", "PLUS", "銀聯"]}, "currencies": {"currency": ["港幣", "人民幣"]}, "latitude": "22.281049", "longitude": "114.17486"}, {"@id": "9807", "region": "香港", "area": "香港", "district": "灣仔", "ob_name": "中國建設銀行(亞洲)股份有限公司", "addr": "灣仔莊士敦道150號地下", "supp_tran": {"tran_name": ["現金提款, 轉賬, 結餘查詢, 更改私人密碼及其他基本服務", "跨行轉賬", "賬單繳費, 信用卡繳費, 慈善捐款", "PLUS", "銀聯"]}, "currencies": {"currency": ["港幣", "人民幣"]}, "latitude": "22.27653298522974", "longitude": "114.17419731616974"}, {"@id": "711", "region": "香港", "area": "香港", "district": "灣仔", "ob_name": "東亞銀行有限公司", "addr": "灣仔軒尼詩道253至261號依時商業大厦地下A-C號", "supp_tran": {"tran_name": ["現金提款, 轉賬, 結餘查詢, 更改私人密碼及其他基本服務", "強積金", "跨行轉賬", "賬單繳費, 信用卡繳費, 慈善捐款", "PLUS", "JCB", "銀聯", "CIRRUS", "Diners Club", "FISC", "Discover"]}, "currencies": {"currency": ["港幣", "人民幣"]}, "latitude": "22.2780198", "longitude": "114.1763396"}, {"@id": "712", "region": "香港", "area": "香港", "district": "灣仔", "ob_name": "東亞銀行有限公司", "addr": "灣仔軒尼詩道253至261號依時商業大厦地下A-C號", "supp_tran": {"tran_name": ["現金提款, 轉賬, 結餘查詢, 更改私人密碼及其他基本服務", "強積金", "跨行轉賬", "賬單繳費, 信用卡繳費, 慈善捐款", "PLUS", "JCB", "銀聯", "CIRRUS", "Diners Club", "FISC", "Discover"]}, "currencies": {"currency": "港幣"}, "latitude": "22.2780198", "longitude": "114.1763396"}, {"@id": "168281", "region": "香港", "area": "香港", "district": "灣仔", "ob_name": "東亞銀行有限公司", "addr": "灣仔軒尼詩道253-261號依時商業大廈地下A-C號", "supp_tran": {"tran_name": ["現金提款, 轉賬, 結餘查詢, 更改私人密碼及其他基本服務", "強積金", "跨行轉賬", "賬單繳費, 信用卡繳費, 慈善捐款", "PLUS", "JCB", "銀聯", "CIRRUS", "Diners Club", "FISC", "Discover"]}, "currencies": {"currency": "港幣"}, "latitude": "22.27806425623526", "longitude": "114.17637896441806"}, {"@id": "713", "region": "香港", "area": "香港", "district": "灣仔", "ob_name": "東亞銀行有限公司", "addr": "灣仔軒尼詩道399號東區商業大廈地下", "supp_tran": {"tran_name": ["現金提款, 轉賬, 結餘查詢, 更改私人密碼及其他基本服務", "強積金", "跨行轉賬", "賬單繳費, 信用卡繳費, 慈善捐款", "PLUS", "JCB", "銀聯", "CIRRUS", "Diners Club", "FISC", "Discover"]}, "currencies": {"currency": "港幣"}, "latitude": "22.279124192713862", "longitude": "114.18028593063354"}, {"@id": "125593", "region": "香港", "area": "香港", "district": "灣仔", "ob_name": "東亞銀行有限公司", "addr": "灣仔軒尼詩道399號東區商業大廈地下", "supp_tran": {"tran_name": ["現金提款, 轉賬, 結餘查詢, 更改私人密碼及其他基本服務", "強積金", "跨行轉賬", "賬單繳費, 信用卡繳費, 慈善捐款", "PLUS", "JCB", "銀聯", "CIRRUS", "Diners Club", "FISC", "Discover"]}, "currencies": {"currency": "港幣"}, "latitude": "22.2791382", "longitude": "114.1804141"}, {"@id": "714", "region": "香港", "area": "香港", "district": "灣仔", "ob_name": "東亞銀行有限公司", "addr": "灣仔皇后大道東228號地下B及C舖", "supp_tran": {"tran_name": ["現金提款, 轉賬, 結餘查詢, 更改私人密碼及其他基本服務", "強積金", "跨行轉賬", "賬單繳費, 信用卡繳費, 慈善捐款", "PLUS", "JCB", "銀聯", "CIRRUS", "Diners Club", "FISC", "Discover"]}, "currencies": {"currency": "港幣"}, "latitude": "22.274584583997786", "longitude": "114.17294204235077"}, {"@id": "165188", "region": "香港", "area": "香港", "district": "灣仔", "ob_name": "東亞銀行有限公司", "addr": "灣仔皇后大道東228號地下B及C", "supp_tran": {"tran_name": ["現金提款, 轉賬, 結餘查詢, 更改私人密碼及其他基本服務", "強積金", "跨行轉賬", "賬單繳費, 信用卡繳費, 慈善捐款", "PLUS", "JCB", "銀聯", "CIRRUS", "Diners Club", "FISC", "Discover"]}, "currencies": {"currency": "港幣"}, "latitude": "22.274476686649762", "longitude": "114.17296899999996"}, {"@id": "715", "region": "香港", "area": "香港", "district": "灣仔", "ob_name": "東亞銀行有限公司", "addr": "灣仔告士打道56號東亞銀行港灣中心地下1號舖", "supp_tran": {"tran_name": ["現金提款, 轉賬, 結餘查詢, 更改私人密碼及其他基本服務", "強積金", "跨行轉賬", "賬單繳費, 信用卡繳費, 慈善捐款", "PLUS", "JCB", "銀聯", "CIRRUS", "Diners Club", "FISC", "Discover"]}, "currencies": {"currency": "港幣"}, "latitude": "22.279014985704666", "longitude": "114.17126566171646"}, {"@id": "251742", "region": "香港", "area": "香港", "district": "灣仔", "ob_name": "東亞銀行有限公司", "addr": "灣仔告士打道56號東亞銀行港灣中心地下1號", "supp_tran": {"tran_name": ["現金提款, 轉賬, 結餘查詢, 更改私人密碼及其他基本服務", "強積金", "跨行轉賬", "賬單繳費, 信用卡繳費, 慈善捐款", "PLUS", "JCB", "銀聯", "CIRRUS", "Diners Club", "FISC", "Discover"]}, "currencies": {"currency": ["港幣", "人民幣"]}, "latitude": "22.278869", "longitude": "114.171170"}, {"@id": "215666", "region": "香港", "area": "香港", "district": "灣仔", "ob_name": "東亞銀行有限公司", "addr": "灣仔港灣道1號會展廣場1樓101號舖", "supp_tran": {"tran_name": ["現金提款, 轉賬, 結餘查詢, 更改私人密碼及其他基本服務", "強積金", "跨行轉賬", "賬單繳費, 信用卡繳費, 慈善捐款", "PLUS", "JCB", "銀聯", "CIRRUS", "Diners Club", "FISC", "Discover"]}, "currencies": {"currency": ["港幣", "人民幣"]}, "latitude": "22.281125", "longitude": "114.17298359999995"}, {"@id": "717", "region": "香港", "area": "香港", "district": "灣仔", "ob_name": "東亞銀行有限公司", "addr": "灣仔海港中心一樓SC#1號舖", "supp_tran": {"tran_name": ["現金提款, 轉賬, 結餘查詢, 更改私人密碼及其他基本服務", "強積金", "跨行轉賬", "賬單繳費, 信用卡繳費, 慈善捐款", "PLUS", "JCB", "銀聯", "CIRRUS", "Diners Club", "FISC", "Discover"]}, "currencies": {"currency": "港幣"}, "latitude": "22.281076", "longitude": "114.175695"}, {"@id": "733", "region": "香港", "area": "香港", "district": "灣仔", "ob_name": "中信銀行(國際)有限公司", "addr": "灣仔軒尼詩道164-166號", "supp_tran": {"tran_name": ["現金提款, 轉賬, 結餘查詢, 更改私人密碼及其他基本服務", "跨行轉賬", "賬單繳費, 信用卡繳費, 慈善捐款", "銀聯"]}, "currencies": {"currency": ["港幣", "人民幣"]}, "latitude": "22.277540682733903", "longitude": "114.17369574308395"}, {"@id": "134759", "region": "香港", "area": "香港", "district": "灣仔", "ob_name": "中信銀行(國際)有限公司", "addr": "香港灣仔軒尼詩道164-166號", "supp_tran": {"tran_name": ["現金提款, 轉賬, 結餘查詢, 更改私人密碼及其他基本服務", "跨行轉賬", "賬單繳費, 信用卡繳費, 慈善捐款", "銀聯"]}, "currencies": {"currency": ["港幣", "人民幣"]}, "latitude": "22.277551", "longitude": "114.17381599999999"}, {"@id": "775", "region": "香港", "area": "香港", "district": "灣仔", "ob_name": "招商永隆銀行有限公司", "addr": "灣仔莊士敦道118號", "supp_tran": {"tran_name": ["現金提款, 轉賬, 結餘查詢, 更改私人密碼及其他基本服務", "強積金", "跨行轉賬", "賬單繳費, 信用卡繳費, 慈善捐款", "PLUS", "JCB", "銀聯", "CIRRUS"]}, "currencies": {"currency": ["港幣", "人民幣"]}, "latitude": "22.276475898700628", "longitude": "114.17336583137512"}, {"@id": "209281", "region": "香港", "area": "香港", "district": "灣仔", "ob_name": "招商永隆銀行有限公司", "addr": "港灣道1號", "supp_tran": {"tran_name": ["現金提款, 轉賬, 結餘查詢, 更改私人密碼及其他基本服務", "強積金", "跨行轉賬", "賬單繳費, 信用卡繳費, 慈善捐款", "PLUS", "JCB", "銀聯", "CIRRUS"]}, "currencies": {"currency": "港幣"}, "latitude": "22.281224", "longitude": "114.172973"}, {"@id": "209282", "region": "香港", "area": "香港", "district": "灣仔", "ob_name": "招商永隆銀行有限公司", "addr": "港灣道1號", "supp_tran": {"tran_name": ["現金提款, 轉賬, 結餘查詢, 更改私人密碼及其他基本服務", "強積金", "跨行轉賬", "賬單繳費, 信用卡繳費, 慈善捐款", "PLUS", "JCB", "銀聯", "CIRRUS"]}, "currencies": {"currency": "港幣"}, "latitude": "22.281224", "longitude": "114.172973"}, {"@id": "754", "region": "香港", "area": "香港", "district": "灣仔", "ob_name": "上海商業銀行", "addr": "灣仔軒尼詩道302號集成中心地下", "supp_tran": {"tran_name": ["現金提款, 轉賬, 結餘查詢, 更改私人密碼及其他基本服務", "強積金", "跨行轉賬", "賬單繳費, 信用卡繳費, 慈善捐款", "PLUS", "JCB", "銀聯", "CIRRUS", "FISC"]}, "currencies": {"currency": ["港幣", "人民幣"]}, "latitude": "22.27805942073652", "longitude": "114.17782098054886"}, {"@id": "755", "region": "香港", "area": "香港", "district": "灣仔", "ob_name": "上海商業銀行", "addr": "灣仔軒尼詩道302號集成中心地下", "supp_tran": {"tran_name": ["現金提款, 轉賬, 結餘查詢, 更改私人密碼及其他基本服務", "強積金", "跨行轉賬", "賬單繳費, 信用卡繳費, 慈善捐款", "PLUS", "JCB", "銀聯", "CIRRUS", "FISC"]}, "currencies": {"currency": ["港幣", "人民幣"]}, "latitude": "22.278056938741095", "longitude": "114.17783439159393"}, {"@id": "756", "region": "香港", "area": "香港", "district": "灣仔", "ob_name": "上海商業銀行", "addr": "灣仔軒尼詩道19-21號", "supp_tran": {"tran_name": ["現金提款, 轉賬, 結餘查詢, 更改私人密碼及其他基本服務", "強積金", "跨行轉賬", "賬單繳費, 信用卡繳費, 慈善捐款", "PLUS", "JCB", "銀聯", "CIRRUS", "FISC"]}, "currencies": {"currency": ["港幣", "人民幣"]}, "latitude": "22.27779384697554", "longitude": "114.16980654001236"}, {"@id": "757", "region": "香港", "area": "香港", "district": "灣仔", "ob_name": "上海商業銀行", "addr": "灣仔軒尼詩道302號集成中心LG16號", "supp_tran": {"tran_name": ["現金提款, 轉賬, 結餘查詢, 更改私人密碼及其他基本服務", "強積金", "跨行轉賬", "賬單繳費, 信用卡繳費, 慈善捐款", "PLUS", "JCB", "銀聯", "CIRRUS", "FISC"]}, "currencies": {"currency": ["港幣", "人民幣"]}, "latitude": "22.27803956477184", "longitude": "114.17781829833984"}, {"@id": "708", "region": "香港", "area": "香港", "district": "灣仔", "ob_name": "交通銀行股份有限公司", "addr": "灣仔莊士敦道32-34號", "supp_tran": {"tran_name": ["現金提款, 轉賬, 結餘查詢, 更改私人密碼及其他基本服務", "強積金", "跨行轉賬", "賬單繳費, 信用卡繳費, 慈善捐款", "PLUS", "銀聯", "CIRRUS"]}, "currencies": {"currency": ["港幣", "人民幣"]}, "latitude": "22.276771259186624", "longitude": "114.1705870628357"}, {"@id": "189976", "region": "香港", "area": "香港", "district": "灣仔", "ob_name": "交通銀行股份有限公司", "addr": "香港莊士敦道32-34號地下", "supp_tran": {"tran_name": ["現金提款, 轉賬, 結餘查詢, 更改私人密碼及其他基本服務", "強積金", "跨行轉賬", "賬單繳費, 信用卡繳費, 慈善捐款", "PLUS", "JCB", "銀聯", "CIRRUS"]}, "currencies": {"currency": ["港幣", "人民幣"]}, "latitude": "22.2768375", "longitude": "114.1706269"}, {"@id": "709", "region": "香港", "area": "香港", "district": "灣仔", "ob_name": "交通銀行股份有限公司", "addr": "灣仔軒尼詩道368號", "supp_tran": {"tran_name": ["現金提款, 轉賬, 結餘查詢, 更改私人密碼及其他基本服務", "強積金", "跨行轉賬", "賬單繳費, 信用卡繳費, 慈善捐款", "PLUS", "銀聯", "CIRRUS"]}, "currencies": {"currency": ["港幣", "人民幣"]}, "latitude": "22.278528517082208", "longitude": "114.1794866323471"}, {"@id": "710", "region": "香港", "area": "香港", "district": "灣仔", "ob_name": "交通銀行股份有限公司", "addr": "灣仔告士打道231-235號交通銀行大廈", "supp_tran": {"tran_name": ["現金提款, 轉賬, 結餘查詢, 更改私人密碼及其他基本服務", "強積金", "跨行轉賬", "賬單繳費, 信用卡繳費, 慈善捐款", "PLUS", "銀聯", "CIRRUS"]}, "currencies": {"currency": ["港幣", "人民幣"]}, "latitude": "22.280600960941374", "longitude": "114.18043076992035"}, {"@id": "77446", "region": "香港", "area": "香港", "district": "灣仔", "ob_name": "華僑永亨銀行有限公司", "addr": "灣仔莊士敦道131至133號", "supp_tran": {"tran_name": ["現金提款, 轉賬, 結餘查詢, 更改私人密碼及其他基本服務", "強積金", "跨行轉賬", "賬單繳費, 信用卡繳費, 慈善捐款", "JCB", "銀聯"]}, "currencies": {"currency": "港幣"}, "latitude": "22.2767021", "longitude": "114.1736197"}, {"@id": "77443", "region": "香港", "area": "香港", "district": "灣仔", "ob_name": "華僑永亨銀行有限公司", "addr": "灣仔告士打道109-111 號東惠商業大廈地下1-3號舖", "supp_tran": {"tran_name": ["現金提款, 轉賬, 結餘查詢, 更改私人密碼及其他基本服務", "強積金", "跨行轉賬", "賬單繳費, 信用卡繳費, 慈善捐款", "JCB", "銀聯"]}, "currencies": {"currency": "港幣"}, "latitude": "22.2790674", "longitude": "114.17435750000004"}, {"@id": "739", "region": "香港", "area": "香港", "district": "灣仔", "ob_name": "集友銀行有限公司", "addr": "香港灣仔軒尼詩道325號", "supp_tran": {"tran_name": ["現金提款, 轉賬, 結餘查詢, 更改私人密碼及其他基本服務", "強積金", "跨行轉賬", "賬單繳費, 信用卡繳費, 慈善捐款", "PLUS", "JCB", "銀聯", "CIRRUS", "FISC"]}, "currencies": {"currency": ["港幣", "人民幣"]}, "latitude": "22.27858560277351", "longitude": "114.17851567268372"}, {"@id": "742", "region": "香港", "area": "香港", "district": "灣仔", "ob_name": "大新銀行有限公司", "addr": "灣仔莊士敦道164號", "supp_tran": {"tran_name": ["現金提款, 轉賬, 結餘查詢, 更改私人密碼及其他基本服務", "強積金", "跨行轉賬", "賬單繳費, 信用卡繳費, 慈善捐款", "PLUS", "銀聯", "CIRRUS"]}, "currencies": {"currency": "港幣"}, "latitude": "22.27661240992714", "longitude": "114.17470693588257"}, {"@id": "743", "region": "香港", "area": "香港", "district": "灣仔", "ob_name": "大新銀行有限公司", "addr": "灣仔告士打道108號大新金融中心地下", "supp_tran": {"tran_name": ["現金提款, 轉賬, 結餘查詢, 更改私人密碼及其他基本服務", "強積金", "跨行轉賬", "賬單繳費, 信用卡繳費, 慈善捐款", "PLUS", "銀聯", "CIRRUS"]}, "currencies": {"currency": "港幣"}, "latitude": "22.2790795171295", "longitude": "114.17377352714539"}, {"@id": "744", "region": "香港", "area": "香港", "district": "灣仔", "ob_name": "大新銀行有限公司", "addr": "灣仔告士打道108號大新金融中心地下", "supp_tran": {"tran_name": ["現金提款, 轉賬, 結餘查詢, 更改私人密碼及其他基本服務", "強積金", "跨行轉賬", "賬單繳費, 信用卡繳費, 慈善捐款", "PLUS", "銀聯", "CIRRUS"]}, "currencies": {"currency": "港幣"}, "latitude": "22.279014985704666", "longitude": "114.17374670505524"}, {"@id": "734", "region": "香港", "area": "香港", "district": "灣仔", "ob_name": "創興銀行有限公司", "addr": "灣仔軒尼詩道265至267號", "supp_tran": {"tran_name": ["現金提款, 轉賬, 結餘查詢, 更改私人密碼及其他基本服務", "強積金", "跨行轉賬", "賬單繳費, 信用卡繳費, 慈善捐款", "銀聯"]}, "currencies": {"currency": "港幣"}, "latitude": "22.278061902731917", "longitude": "114.17676419019699"}, {"@id": "747", "region": "香港", "area": "香港", "district": "灣仔", "ob_name": "中國工商銀行(亞洲)有限公司", "addr": "灣仔軒尼詩道117-123號", "supp_tran": {"tran_name": ["現金提款, 轉賬, 結餘查詢, 更改私人密碼及其他基本服務", "跨行轉賬", "賬單繳費, 信用卡繳費, 慈善捐款", "JCB", "銀聯", "CIRRUS"]}, "currencies": {"currency": ["港幣", "人民幣"]}, "latitude": "22.277622588862233", "longitude": "114.17252898216248"}, {"@id": "134758", "region": "香港", "area": "香港", "district": "灣仔", "ob_name": "中國工商銀行(亞洲)有限公司", "addr": "香港灣仔軒尼詩道117-123號", "supp_tran": {"tran_name": ["現金提款, 轉賬, 結餘查詢, 更改私人密碼及其他基本服務", "跨行轉賬", "賬單繳費, 信用卡繳費, 慈善捐款", "JCB", "銀聯", "CIRRUS"]}, "currencies": {"currency": ["港幣", "人民幣"]}, "latitude": "22.2777723", "longitude": "114.17247650000001"}, {"@id": "748", "region": "香港", "area": "香港", "district": "灣仔", "ob_name": "中國工商銀行(亞洲)有限公司", "addr": "香港灣仔道133號星航資訊中心地下", "supp_tran": {"tran_name": ["現金提款, 轉賬, 結餘查詢, 更改私人密碼及其他基本服務", "跨行轉賬", "賬單繳費, 信用卡繳費, 慈善捐款", "JCB", "銀聯", "CIRRUS"]}, "currencies": {"currency": ["港幣", "人民幣"]}, "latitude": "22.276684388520206", "longitude": "114.17528629302979"}, {"@id": "80396", "region": "香港", "area": "香港", "district": "灣仔", "ob_name": "中國工商銀行(亞洲)有限公司", "addr": "香港灣仔道133號星航資訊中心地下", "supp_tran": {"tran_name": ["現金提款, 轉賬, 結餘查詢, 更改私人密碼及其他基本服務", "跨行轉賬", "賬單繳費, 信用卡繳費, 慈善捐款", "JCB", "銀聯", "CIRRUS"]}, "currencies": {"currency": ["港幣", "人民幣"]}, "latitude": "22.276537949274644", "longitude": "114.17614728212357"}, {"@id": "215651", "region": "香港", "area": "香港", "district": "灣仔", "ob_name": "中國工商銀行(亞洲)有限公司", "addr": "香港灣仔港灣道26號華潤大廈1樓101號舖", "supp_tran": {"tran_name": ["現金提款, 轉賬, 結餘查詢, 更改私人密碼及其他基本服務", "跨行轉賬", "賬單繳費, 信用卡繳費, 慈善捐款", "JCB", "銀聯", "CIRRUS"]}, "currencies": {"currency": ["港幣", "人民幣"]}, "latitude": "22.2799946", "longitude": "114.1754684"}, {"@id": "746", "region": "香港", "area": "香港", "district": "灣仔", "ob_name": "富邦銀行(香港)有限公司", "addr": "灣仔皇后大道東213號胡忠大廈地下2號舖", "supp_tran": {"tran_name": ["現金提款, 轉賬, 結餘查詢, 更改私人密碼及其他基本服務", "強積金", "跨行轉賬", "賬單繳費, 信用卡繳費, 慈善捐款", "PLUS", "銀聯", "CIRRUS"]}, "currencies": {"currency": ["港幣", "人民幣"]}, "latitude": "22.274289218894246", "longitude": "114.17287766933441"}, {"@id": "245125", "region": "香港", "area": "香港", "district": "灣仔", "ob_name": "富邦銀行(香港)有限公司", "addr": "灣仔皇后大道東213號胡忠大廈地下2號舖", "supp_tran": {"tran_name": ["現金提款, 轉賬, 結餘查詢, 更改私人密碼及其他基本服務", "強積金", "跨行轉賬", "賬單繳費, 信用卡繳費, 慈善捐款", "PLUS", "銀聯", "CIRRUS"]}, "currencies": {"currency": ["港幣", "人民幣"]}, "latitude": "22.274505", "longitude": "114.172796"}]}}}