{"xml_msg": {"@query": "region=2,area=1,district=18,transaction=1", "supp_cb": null, "atms": {"atm": [{"@id": "799", "region": "香港", "area": "香港", "district": "西環", "ob_name": "渣打銀行(香港)有限公司", "addr": "香港西環石塘咀皇后大道西455-485號龍暉花園地下8-12號舖", "supp_tran": {"tran_name": ["現金提款, 轉賬, 結餘查詢, 更改私人密碼及其他基本服務", "賬單繳費, 信用卡繳費, 慈善捐款", "PLUS", "銀聯", "CIRRUS"]}, "currencies": {"currency": ["港幣", "人民幣"]}, "latitude": "22.286392", "longitude": "114.134462"}, {"@id": "800", "region": "香港", "area": "香港", "district": "西環", "ob_name": "渣打銀行(香港)有限公司", "addr": "香港西環石塘咀皇后大道西455-485號龍暉花園地下8-12號舖", "supp_tran": {"tran_name": ["現金提款, 轉賬, 結餘查詢, 更改私人密碼及其他基本服務", "賬單繳費, 信用卡繳費, 慈善捐款", "PLUS", "銀聯", "CIRRUS"]}, "currencies": {"currency": ["港幣", "人民幣"]}, "latitude": "22.286392", "longitude": "114.134462"}, {"@id": "783", "region": "香港", "area": "香港", "district": "西環", "ob_name": "中國建設銀行(亞洲)股份有限公司", "addr": "德輔道西 489-499號美新樓 B座中西區", "supp_tran": {"tran_name": ["現金提款, 轉賬, 結餘查詢, 更改私人密碼及其他基本服務", "跨行轉賬", "賬單繳費, 信用卡繳費, 慈善捐款", "PLUS", "銀聯"]}, "currencies": {"currency": ["港幣", "人民幣"]}, "latitude": "22.287078", "longitude": "114.133972"}, {"@id": "780", "region": "香港", "area": "香港", "district": "西環", "ob_name": "中國銀行(香港)有限公司", "addr": "西環堅尼地城吉席街2-2F海怡花園", "supp_tran": {"tran_name": ["現金提款, 轉賬, 結餘查詢, 更改私人密碼及其他基本服務", "強積金", "賬單繳費, 信用卡繳費, 慈善捐款", "PLUS", "JCB", "銀聯", "CIRRUS", "FISC"]}, "currencies": {"currency": ["港幣", "人民幣"]}, "latitude": "22.283412982358403", "longitude": "114.12932395935059"}, {"@id": "781", "region": "香港", "area": "香港", "district": "西環", "ob_name": "中國銀行(香港)有限公司", "addr": "西環石塘咀皇后大道西534號", "supp_tran": {"tran_name": ["現金提款, 轉賬, 結餘查詢, 更改私人密碼及其他基本服務", "強積金", "賬單繳費, 信用卡繳費, 慈善捐款", "PLUS", "JCB", "銀聯", "CIRRUS", "FISC"]}, "currencies": {"currency": ["港幣", "人民幣"]}, "latitude": "22.286182755756336", "longitude": "114.1344764828682"}, {"@id": "782", "region": "香港", "area": "香港", "district": "西環", "ob_name": "中國銀行(香港)有限公司", "addr": "西環德輔道西386-388號", "supp_tran": {"tran_name": ["現金提款, 轉賬, 結餘查詢, 更改私人密碼及其他基本服務", "強積金", "賬單繳費, 信用卡繳費, 慈善捐款", "PLUS", "JCB", "銀聯", "CIRRUS", "FISC"]}, "currencies": {"currency": ["港幣", "人民幣"]}, "latitude": "22.2868751905317", "longitude": "114.13726061582565"}, {"@id": "779", "region": "香港", "area": "香港", "district": "西環", "ob_name": "東亞銀行有限公司", "addr": "香港石塘咀皇后大道西484-496號新安大樓地下I及J號", "supp_tran": {"tran_name": ["現金提款, 轉賬, 結餘查詢, 更改私人密碼及其他基本服務", "強積金", "跨行轉賬", "賬單繳費, 信用卡繳費, 慈善捐款", "PLUS", "JCB", "銀聯", "CIRRUS", "Diners Club", "FISC", "Discover"]}, "currencies": {"currency": ["港幣", "人民幣"]}, "latitude": "22.28375548419257", "longitude": "114.13068115711212"}, {"@id": "788", "region": "香港", "area": "香港", "district": "西環", "ob_name": "星展銀行(香港)有限公司", "addr": "西環皇后大道西441號地下", "supp_tran": {"tran_name": ["現金提款, 轉賬, 結餘查詢, 更改私人密碼及其他基本服務", "賬單繳費, 信用卡繳費, 慈善捐款", "PLUS", "銀聯", "CIRRUS"]}, "currencies": {"currency": ["港幣", "人民幣"]}, "latitude": "22.286093409083882", "longitude": "114.13542330265045"}, {"@id": "789", "region": "香港", "area": "香港", "district": "西環", "ob_name": "星展銀行(香港)有限公司", "addr": "西環皇后大道西441號地下", "supp_tran": {"tran_name": ["現金提款, 轉賬, 結餘查詢, 更改私人密碼及其他基本服務", "賬單繳費, 信用卡繳費, 慈善捐款", "PLUS", "銀聯", "CIRRUS"]}, "currencies": {"currency": ["港幣", "人民幣"]}, "latitude": "22.2861008546421", "longitude": "114.13545280694962"}, {"@id": "784", "region": "香港", "area": "香港", "district": "西環", "ob_name": "中信銀行(國際)有限公司", "addr": "西環皇后大道西488號新安大樓地下", "supp_tran": {"tran_name": ["現金提款, 轉賬, 結餘查詢, 更改私人密碼及其他基本服務", "跨行轉賬", "賬單繳費, 信用卡繳費, 慈善捐款", "銀聯"]}, "currencies": {"currency": ["港幣", "人民幣"]}, "latitude": "22.285944497836237", "longitude": "114.13545548915863"}, {"@id": "802", "region": "香港", "area": "香港", "district": "西環", "ob_name": "招商永隆銀行有限公司", "addr": "西環皇后大道西262號", "supp_tran": {"tran_name": ["現金提款, 轉賬, 結餘查詢, 更改私人密碼及其他基本服務", "強積金", "跨行轉賬", "賬單繳費, 信用卡繳費, 慈善捐款", "PLUS", "JCB", "銀聯", "CIRRUS"]}, "currencies": {"currency": ["港幣", "人民幣"]}, "latitude": "22.286805699024484", "longitude": "114.14284497499466"}, {"@id": "803", "region": "香港", "area": "香港", "district": "西環", "ob_name": "招商永隆銀行有限公司", "addr": "西環吉席街28號", "supp_tran": {"tran_name": ["現金提款, 轉賬, 結餘查詢, 更改私人密碼及其他基本服務", "強積金", "跨行轉賬", "賬單繳費, 信用卡繳費, 慈善捐款", "PLUS", "JCB", "銀聯", "CIRRUS"]}, "currencies": {"currency": ["港幣", "人民幣"]}, "latitude": "22.28324917683679", "longitude": "114.12826716899872"}, {"@id": "798", "region": "香港", "area": "香港", "district": "西環", "ob_name": "上海商業銀行", "addr": "西環卑路乍街57-61號地下2號舖", "supp_tran": {"tran_name": ["現金提款, 轉賬, 結餘查詢, 更改私人密碼及其他基本服務", "強積金", "跨行轉賬", "賬單繳費, 信用卡繳費, 慈善捐款", "PLUS", "JCB", "銀聯", "CIRRUS", "FISC"]}, "currencies": {"currency": ["港幣", "人民幣"]}, "latitude": "22.283328597719724", "longitude": "114.12815183401108"}, {"@id": "776", "region": "香港", "area": "香港", "district": "西環", "ob_name": "交通銀行股份有限公司", "addr": "西環皇后大道西327-333號", "supp_tran": {"tran_name": ["現金提款, 轉賬, 結餘查詢, 更改私人密碼及其他基本服務", "強積金", "跨行轉賬", "賬單繳費, 信用卡繳費, 慈善捐款", "PLUS", "銀聯", "CIRRUS"]}, "currencies": {"currency": ["港幣", "人民幣"]}, "latitude": "22.286974464053507", "longitude": "114.14154946804047"}, {"@id": "777", "region": "香港", "area": "香港", "district": "西環", "ob_name": "交通銀行股份有限公司", "addr": "西環堅尼地城卑路乍街113-119號地下", "supp_tran": {"tran_name": ["現金提款, 轉賬, 結餘查詢, 更改私人密碼及其他基本服務", "強積金", "跨行轉賬", "賬單繳費, 信用卡繳費, 慈善捐款", "PLUS", "銀聯", "CIRRUS"]}, "currencies": {"currency": ["港幣", "人民幣"]}, "latitude": "22.28259395283123", "longitude": "114.12809818983078"}, {"@id": "796", "region": "香港", "area": "香港", "district": "西環", "ob_name": "大眾銀行(香港)有限公司", "addr": "香港德輔道西163-173號金坤大廈地下2-3號舖", "supp_tran": {"tran_name": ["現金提款, 轉賬, 結餘查詢, 更改私人密碼及其他基本服務", "強積金", "跨行轉賬", "賬單繳費, 信用卡繳費, 慈善捐款", "JCB", "銀聯"]}, "currencies": {"currency": ["港幣", "人民幣"]}, "latitude": "22.28791507717405", "longitude": "114.14350479841232"}, {"@id": "797", "region": "香港", "area": "香港", "district": "西環", "ob_name": "大眾銀行(香港)有限公司", "addr": "香港德輔道西369-375號香港商業中心地下B1", "supp_tran": {"tran_name": ["現金提款, 轉賬, 結餘查詢, 更改私人密碼及其他基本服務", "強積金", "跨行轉賬", "賬單繳費, 信用卡繳費, 慈善捐款", "JCB", "銀聯"]}, "currencies": {"currency": ["港幣", "人民幣"]}, "latitude": "22.286758544053487", "longitude": "114.13590878248215"}, {"@id": "95190", "region": "香港", "area": "香港", "district": "西環", "ob_name": "華僑永亨銀行有限公司", "addr": "西環德輔道西139至141號", "supp_tran": {"tran_name": ["現金提款, 轉賬, 結餘查詢, 更改私人密碼及其他基本服務", "強積金", "跨行轉賬", "賬單繳費, 信用卡繳費, 慈善捐款", "JCB", "銀聯"]}, "currencies": {"currency": "港幣"}, "latitude": "22.2878837", "longitude": "114.1440758"}, {"@id": "787", "region": "香港", "area": "香港", "district": "西環", "ob_name": "集友銀行有限公司", "addr": "香港皇后大道西443號", "supp_tran": {"tran_name": ["現金提款, 轉賬, 結餘查詢, 更改私人密碼及其他基本服務", "強積金", "跨行轉賬", "賬單繳費, 信用卡繳費, 慈善捐款", "PLUS", "JCB", "銀聯", "CIRRUS", "FISC"]}, "currencies": {"currency": ["港幣", "人民幣"]}, "latitude": "22.286130636871015", "longitude": "114.13513094186783"}, {"@id": "159077", "region": "香港", "area": "香港", "district": "西環", "ob_name": "大新銀行有限公司", "addr": "香港士美菲路12號文光閣地下A2號舖及1樓A室", "supp_tran": {"tran_name": ["現金提款, 轉賬, 結餘查詢, 更改私人密碼及其他基本服務", "強積金", "跨行轉賬", "賬單繳費, 信用卡繳費, 慈善捐款", "PLUS", "銀聯", "CIRRUS"]}, "currencies": {"currency": "港幣"}, "latitude": "22.2821878", "longitude": "114.12846809999996"}, {"@id": "791", "region": "香港", "area": "香港", "district": "西環", "ob_name": "大新銀行有限公司", "addr": "西環皇后大道西443-453號地下15-16號舖", "supp_tran": {"tran_name": ["現金提款, 轉賬, 結餘查詢, 更改私人密碼及其他基本服務", "強積金", "跨行轉賬", "賬單繳費, 信用卡繳費, 慈善捐款", "PLUS", "銀聯", "CIRRUS"]}, "currencies": {"currency": "港幣"}, "latitude": "22.286135600575207", "longitude": "114.13507729768753"}, {"@id": "785", "region": "香港", "area": "香港", "district": "西環", "ob_name": "創興銀行有限公司", "addr": "西環德輔道西347至349號", "supp_tran": {"tran_name": ["現金提款, 轉賬, 結餘查詢, 更改私人密碼及其他基本服務", "強積金", "跨行轉賬", "賬單繳費, 信用卡繳費, 慈善捐款", "銀聯"]}, "currencies": {"currency": "港幣"}, "latitude": "22.286996800586188", "longitude": "114.13695216178894"}, {"@id": "786", "region": "香港", "area": "香港", "district": "西環", "ob_name": "創興銀行有限公司", "addr": "西環德輔道西81至85號", "supp_tran": {"tran_name": ["現金提款, 轉賬, 結餘查詢, 更改私人密碼及其他基本服務", "強積金", "跨行轉賬", "賬單繳費, 信用卡繳費, 慈善捐款", "銀聯"]}, "currencies": {"currency": "港幣"}, "latitude": "22.287835658896636", "longitude": "114.14552450180054"}, {"@id": "101263", "region": "香港", "area": "香港", "district": "西環", "ob_name": "南洋商業銀行有限公司", "addr": "香港卑路乍街86號", "supp_tran": {"tran_name": ["現金提款, 轉賬, 結餘查詢, 更改私人密碼及其他基本服務", "強積金", "賬單繳費, 信用卡繳費, 慈善捐款", "PLUS", "JCB", "銀聯", "CIRRUS"]}, "currencies": {"currency": ["港幣", "人民幣"]}, "latitude": "22.282539350692172", "longitude": "114.12836909294128"}, {"@id": "101267", "region": "香港", "area": "香港", "district": "西環", "ob_name": "南洋商業銀行有限公司", "addr": "香港卑路乍街86號", "supp_tran": {"tran_name": ["現金提款, 轉賬, 結餘查詢, 更改私人密碼及其他基本服務", "強積金", "賬單繳費, 信用卡繳費, 慈善捐款", "PLUS", "JCB", "銀聯", "CIRRUS"]}, "currencies": {"currency": ["港幣", "人民幣"]}, "latitude": "22.282459", "longitude": "114.128391"}, {"@id": "122590", "region": "香港", "area": "香港", "district": "西環", "ob_name": "南洋商業銀行有限公司", "addr": "香港德輔道西334號", "supp_tran": {"tran_name": ["現金提款, 轉賬, 結餘查詢, 更改私人密碼及其他基本服務", "強積金", "賬單繳費, 信用卡繳費, 慈善捐款", "PLUS", "JCB", "銀聯", "CIRRUS", "FISC"]}, "currencies": {"currency": ["港幣", "人民幣"]}, "latitude": "22.2869025", "longitude": "114.1504672"}, {"@id": "792", "region": "香港", "area": "香港", "district": "西環", "ob_name": "中國工商銀行(亞洲)有限公司", "addr": "西環皇后大道西242-244號", "supp_tran": {"tran_name": ["現金提款, 轉賬, 結餘查詢, 更改私人密碼及其他基本服務", "跨行轉賬", "賬單繳費, 信用卡繳費, 慈善捐款", "JCB", "銀聯", "CIRRUS"]}, "currencies": {"currency": ["港幣", "人民幣"]}, "latitude": "22.286795771663492", "longitude": "114.14322853088379"}, {"@id": "225330", "region": "香港", "area": "香港", "district": "西環", "ob_name": "中國工商銀行(亞洲)有限公司", "addr": "香港德輔道西345 - 345A地下2號舖", "supp_tran": {"tran_name": ["現金提款, 轉賬, 結餘查詢, 更改私人密碼及其他基本服務", "跨行轉賬", "賬單繳費, 信用卡繳費, 慈善捐款", "JCB", "銀聯", "CIRRUS"]}, "currencies": {"currency": ["港幣", "人民幣"]}, "latitude": "22.2871031", "longitude": "114.13737430000003"}, {"@id": "245124", "region": "香港", "area": "香港", "district": "西環", "ob_name": "富邦銀行(香港)有限公司", "addr": "香港堅尼地城卑路乍街44A-46號低層地下1號舖", "supp_tran": {"tran_name": ["現金提款, 轉賬, 結餘查詢, 更改私人密碼及其他基本服務", "強積金", "跨行轉賬", "賬單繳費, 信用卡繳費, 慈善捐款", "PLUS", "銀聯", "CIRRUS"]}, "currencies": {"currency": ["港幣", "人民幣"]}, "latitude": "22.282505", "longitude": "114.129437"}, {"@id": "248444", "region": "香港", "area": "香港", "district": "西環", "ob_name": "花旗銀行(香港)有限公司", "addr": "西環卑路乍街8號西寶城地下低層", "supp_tran": {"tran_name": ["現金提款, 轉賬, 結餘查詢, 更改私人密碼及其他基本服務", "賬單繳費, 信用卡繳費, 慈善捐款", "PLUS", "銀聯", "CIRRUS"]}, "currencies": {"currency": ["港幣", "人民幣"]}, "latitude": "22.285625", "longitude": "114.132957"}]}}}