{"xml_msg": {"@query": "region=2,area=3,district=68,transaction=7", "supp_cb": null, "atms": {"atm": [{"@id": "177618", "region": "香港", "area": "新界", "district": "元朗", "ob_name": "渣打銀行(香港)有限公司", "addr": "香港新界元朗朗屏路1號朗屏邨鏡屏樓第5座閣樓M003A舖", "supp_tran": {"tran_name": ["現金提款, 轉賬, 結餘查詢, 更改私人密碼及其他基本服務", "賬單繳費, 信用卡繳費, 慈善捐款", "PLUS", "銀聯", "CIRRUS"]}, "currencies": {"currency": ["港幣", "人民幣"]}, "latitude": "22.4497237", "longitude": "114.02337139999997"}, {"@id": "1843", "region": "香港", "area": "新界", "district": "元朗", "ob_name": "渣打銀行(香港)有限公司", "addr": "元朗大馬路140號", "supp_tran": {"tran_name": ["現金提款, 轉賬, 結餘查詢, 更改私人密碼及其他基本服務", "賬單繳費, 信用卡繳費, 慈善捐款", "PLUS", "銀聯", "CIRRUS"]}, "currencies": {"currency": ["港幣", "人民幣"]}, "latitude": "22.444311071149848", "longitude": "114.02779161930084"}, {"@id": "1840", "region": "香港", "area": "新界", "district": "元朗", "ob_name": "渣打銀行(香港)有限公司", "addr": "元朗青山公路段247號萬昌樓地下前舖B號及一樓全層", "supp_tran": {"tran_name": ["現金提款, 轉賬, 結餘查詢, 更改私人密碼及其他基本服務", "賬單繳費, 信用卡繳費, 慈善捐款", "PLUS", "銀聯", "CIRRUS"]}, "currencies": {"currency": ["港幣", "人民幣"]}, "latitude": "22.444648219430853", "longitude": "114.0245595574379"}, {"@id": "1841", "region": "香港", "area": "新界", "district": "元朗", "ob_name": "渣打銀行(香港)有限公司", "addr": "元朗青山公路段247號萬昌樓地下前舖B號及一樓全層", "supp_tran": {"tran_name": ["現金提款, 轉賬, 結餘查詢, 更改私人密碼及其他基本服務", "賬單繳費, 信用卡繳費, 慈善捐款", "PLUS", "銀聯", "CIRRUS"]}, "currencies": {"currency": ["港幣", "人民幣"]}, "latitude": "22.44465069845929", "longitude": "114.02450859546661"}, {"@id": "1822", "region": "香港", "area": "新界", "district": "元朗", "ob_name": "中國建設銀行(亞洲)股份有限公司", "addr": "元朗青山道68-76號地下", "supp_tran": {"tran_name": ["現金提款, 轉賬, 結餘查詢, 更改私人密碼及其他基本服務", "跨行轉賬", "賬單繳費, 信用卡繳費, 慈善捐款", "PLUS", "銀聯"]}, "currencies": {"currency": ["港幣", "人民幣"]}, "latitude": "22.44428628080273", "longitude": "114.03004467487335"}, {"@id": "1823", "region": "香港", "area": "新界", "district": "元朗", "ob_name": "中國建設銀行(亞洲)股份有限公司", "addr": "元朗青山道68-76號地下", "supp_tran": {"tran_name": ["現金提款, 轉賬, 結餘查詢, 更改私人密碼及其他基本服務", "跨行轉賬", "賬單繳費, 信用卡繳費, 慈善捐款", "PLUS", "銀聯"]}, "currencies": {"currency": ["港幣", "人民幣"]}, "latitude": "22.444246616238118", "longitude": "114.03009831905365"}, {"@id": "1801", "region": "香港", "area": "新界", "district": "元朗", "ob_name": "中國銀行(香港)有限公司", "addr": "元朗青山公路8-18號", "supp_tran": {"tran_name": ["現金提款, 轉賬, 結餘查詢, 更改私人密碼及其他基本服務", "強積金", "賬單繳費, 信用卡繳費, 慈善捐款", "PLUS", "JCB", "銀聯", "CIRRUS", "FISC"]}, "currencies": {"currency": "港幣"}, "latitude": "22.44428628080273", "longitude": "114.03164863586426"}, {"@id": "1802", "region": "香港", "area": "新界", "district": "元朗", "ob_name": "中國銀行(香港)有限公司", "addr": "元朗青山公路8-18號", "supp_tran": {"tran_name": ["現金提款, 轉賬, 結餘查詢, 更改私人密碼及其他基本服務", "強積金", "賬單繳費, 信用卡繳費, 慈善捐款", "PLUS", "JCB", "銀聯", "CIRRUS", "FISC"]}, "currencies": {"currency": ["港幣", "人民幣"]}, "latitude": "22.444273885627503", "longitude": "114.03163522481918"}, {"@id": "71751", "region": "香港", "area": "新界", "district": "元朗", "ob_name": "中國銀行(香港)有限公司", "addr": "新界元朗洪水橋洪泰路8號雅珊園商場1樓1號位置", "supp_tran": {"tran_name": ["現金提款, 轉賬, 結餘查詢, 更改私人密碼及其他基本服務", "強積金", "賬單繳費, 信用卡繳費, 慈善捐款", "PLUS", "JCB", "銀聯", "CIRRUS", "FISC"]}, "currencies": {"currency": ["港幣", "人民幣"]}, "latitude": "22.433819400468604", "longitude": "113.99669945240021"}, {"@id": "1803", "region": "香港", "area": "新界", "district": "元朗", "ob_name": "中國銀行(香港)有限公司", "addr": "元朗教育路18-24號", "supp_tran": {"tran_name": ["現金提款, 轉賬, 結餘查詢, 更改私人密碼及其他基本服務", "強積金", "賬單繳費, 信用卡繳費, 慈善捐款", "PLUS", "JCB", "銀聯", "CIRRUS", "FISC"]}, "currencies": {"currency": ["港幣", "人民幣"]}, "latitude": "22.443004613820616", "longitude": "114.02797132730484"}, {"@id": "1804", "region": "香港", "area": "新界", "district": "元朗", "ob_name": "中國銀行(香港)有限公司", "addr": "元朗教育路18-24號", "supp_tran": {"tran_name": ["現金提款, 轉賬, 結餘查詢, 更改私人密碼及其他基本服務", "強積金", "賬單繳費, 信用卡繳費, 慈善捐款", "PLUS", "JCB", "銀聯", "CIRRUS", "FISC"]}, "currencies": {"currency": "港幣"}, "latitude": "22.443009571936216", "longitude": "114.02790695428848"}, {"@id": "1805", "region": "香港", "area": "新界", "district": "元朗", "ob_name": "中國銀行(香港)有限公司", "addr": "元朗教育路18-24號", "supp_tran": {"tran_name": ["現金提款, 轉賬, 結餘查詢, 更改私人密碼及其他基本服務", "強積金", "賬單繳費, 信用卡繳費, 慈善捐款", "PLUS", "JCB", "銀聯", "CIRRUS", "FISC"]}, "currencies": {"currency": ["港幣", "人民幣"]}, "latitude": "22.442989739472782", "longitude": "114.02787208557129"}, {"@id": "1806", "region": "香港", "area": "新界", "district": "元朗", "ob_name": "中國銀行(香港)有限公司", "addr": "港鐵錦上路站", "supp_tran": {"tran_name": ["現金提款, 轉賬, 結餘查詢, 更改私人密碼及其他基本服務", "強積金", "賬單繳費, 信用卡繳費, 慈善捐款", "PLUS", "JCB", "銀聯", "CIRRUS", "FISC"]}, "currencies": {"currency": ["港幣", "人民幣"]}, "latitude": "22.4350295", "longitude": "114.0633911"}, {"@id": "1807", "region": "香港", "area": "新界", "district": "元朗", "ob_name": "中國銀行(香港)有限公司", "addr": "港鐵元朗站", "supp_tran": {"tran_name": ["現金提款, 轉賬, 結餘查詢, 更改私人密碼及其他基本服務", "強積金", "賬單繳費, 信用卡繳費, 慈善捐款", "PLUS", "JCB", "銀聯", "CIRRUS", "FISC"]}, "currencies": {"currency": ["港幣", "人民幣"]}, "latitude": "22.446100922503728", "longitude": "114.0347170829773"}, {"@id": "1808", "region": "香港", "area": "新界", "district": "元朗", "ob_name": "中國銀行(香港)有限公司", "addr": "港鐵元朗站", "supp_tran": {"tran_name": ["現金提款, 轉賬, 結餘查詢, 更改私人密碼及其他基本服務", "強積金", "賬單繳費, 信用卡繳費, 慈善捐款", "PLUS", "JCB", "銀聯", "CIRRUS", "FISC"]}, "currencies": {"currency": ["港幣", "人民幣"]}, "latitude": "22.4461076", "longitude": "114.0347266"}, {"@id": "162110", "region": "香港", "area": "新界", "district": "元朗", "ob_name": "中國銀行(香港)有限公司", "addr": "新界元朗青山公路162號", "supp_tran": {"tran_name": ["現金提款, 轉賬, 結餘查詢, 更改私人密碼及其他基本服務", "強積金", "賬單繳費, 信用卡繳費, 慈善捐款", "PLUS", "JCB", "銀聯", "CIRRUS", "FISC"]}, "currencies": {"currency": ["港幣", "人民幣"]}, "latitude": "22.4443074", "longitude": "114.02682989999994"}, {"@id": "1809", "region": "香港", "area": "新界", "district": "元朗", "ob_name": "中國銀行(香港)有限公司", "addr": "港鐵朗屏站(西鐵線)", "supp_tran": {"tran_name": ["現金提款, 轉賬, 結餘查詢, 更改私人密碼及其他基本服務", "強積金", "賬單繳費, 信用卡繳費, 慈善捐款", "PLUS", "JCB", "銀聯", "CIRRUS", "FISC"]}, "currencies": {"currency": ["港幣", "人民幣"]}, "latitude": "22.4475321", "longitude": "114.025167"}, {"@id": "1810", "region": "香港", "area": "新界", "district": "元朗", "ob_name": "中國銀行(香港)有限公司", "addr": "港鐵朗屏站(西鐵線)", "supp_tran": {"tran_name": ["現金提款, 轉賬, 結餘查詢, 更改私人密碼及其他基本服務", "強積金", "賬單繳費, 信用卡繳費, 慈善捐款", "PLUS", "JCB", "銀聯", "CIRRUS", "FISC"]}, "currencies": {"currency": ["港幣", "人民幣"]}, "latitude": "22.4475321", "longitude": "114.025167"}, {"@id": "186913", "region": "香港", "area": "新界", "district": "元朗", "ob_name": "中國銀行(香港)有限公司", "addr": "元朗壽富街29號興隆中心地下20號舖", "supp_tran": {"tran_name": ["現金提款, 轉賬, 結餘查詢, 更改私人密碼及其他基本服務", "強積金", "賬單繳費, 信用卡繳費, 慈善捐款", "PLUS", "JCB", "銀聯", "CIRRUS", "FISC"]}, "currencies": {"currency": ["港幣", "人民幣"]}, "latitude": "22.444956", "longitude": "114.02757840000004"}, {"@id": "186914", "region": "香港", "area": "新界", "district": "元朗", "ob_name": "中國銀行(香港)有限公司", "addr": "元朗壽富街29號興隆中心地下20號舖", "supp_tran": {"tran_name": ["現金提款, 轉賬, 結餘查詢, 更改私人密碼及其他基本服務", "強積金", "賬單繳費, 信用卡繳費, 慈善捐款", "PLUS", "JCB", "銀聯", "CIRRUS", "FISC"]}, "currencies": {"currency": "港幣"}, "latitude": "22.444956", "longitude": "114.02757840000004"}, {"@id": "189979", "region": "香港", "area": "新界", "district": "元朗", "ob_name": "中國銀行(香港)有限公司", "addr": "新界元朗教育路18-24號", "supp_tran": {"tran_name": ["現金提款, 轉賬, 結餘查詢, 更改私人密碼及其他基本服務", "強積金", "賬單繳費, 信用卡繳費, 慈善捐款", "PLUS", "JCB", "銀聯", "CIRRUS", "FISC"]}, "currencies": {"currency": "港幣"}, "latitude": "22.443018735679437", "longitude": "114.027920082209"}, {"@id": "212464", "region": "香港", "area": "新界", "district": "元朗", "ob_name": "中國銀行(香港)有限公司", "addr": "石崗村軍營", "supp_tran": {"tran_name": ["現金提款, 轉賬, 結餘查詢, 更改私人密碼及其他基本服務", "強積金", "賬單繳費, 信用卡繳費, 慈善捐款", "PLUS", "JCB", "銀聯", "CIRRUS", "FISC"]}, "currencies": {"currency": ["港幣", "人民幣"]}, "latitude": "22.441175", "longitude": "114.077918"}, {"@id": "222070", "region": "香港", "area": "新界", "district": "元朗", "ob_name": "中國銀行(香港)有限公司", "addr": "元朗天水圍頌富廣場一期二樓L218A號舖", "supp_tran": {"tran_name": ["現金提款, 轉賬, 結餘查詢, 更改私人密碼及其他基本服務", "強積金", "賬單繳費, 信用卡繳費, 慈善捐款", "PLUS", "JCB", "銀聯", "CIRRUS", "FISC"]}, "currencies": {"currency": ["港幣", "人民幣"]}, "latitude": "22.462089478068606", "longitude": "113.99784812905272"}, {"@id": "222071", "region": "香港", "area": "新界", "district": "元朗", "ob_name": "中國銀行(香港)有限公司", "addr": "元朗天水圍頌富廣場一期二樓L218A號舖", "supp_tran": {"tran_name": ["現金提款, 轉賬, 結餘查詢, 更改私人密碼及其他基本服務", "強積金", "賬單繳費, 信用卡繳費, 慈善捐款", "PLUS", "JCB", "銀聯", "CIRRUS", "FISC"]}, "currencies": {"currency": ["港幣", "人民幣"]}, "latitude": "22.46206964833419", "longitude": "113.99810562111815"}, {"@id": "222072", "region": "香港", "area": "新界", "district": "元朗", "ob_name": "中國銀行(香港)有限公司", "addr": "元朗天水圍頌富廣場一期二樓L218A號舖", "supp_tran": {"tran_name": ["現金提款, 轉賬, 結餘查詢, 更改私人密碼及其他基本服務", "強積金", "賬單繳費, 信用卡繳費, 慈善捐款", "PLUS", "JCB", "銀聯", "CIRRUS", "FISC"]}, "currencies": {"currency": "港幣"}, "latitude": "22.462238200986245", "longitude": "113.997896408815"}, {"@id": "228555", "region": "香港", "area": "新界", "district": "元朗", "ob_name": "中國銀行(香港)有限公司", "addr": "新界元朗坳頭博愛醫院地下大堂", "supp_tran": {"tran_name": ["現金提款, 轉賬, 結餘查詢, 更改私人密碼及其他基本服務", "強積金", "賬單繳費, 信用卡繳費, 慈善捐款", "PLUS", "JCB", "銀聯", "CIRRUS", "FISC"]}, "currencies": {"currency": ["港幣", "人民幣"]}, "latitude": "22.445783", "longitude": "114.041543"}, {"@id": "1812", "region": "香港", "area": "新界", "district": "元朗", "ob_name": "中國銀行(香港)有限公司", "addr": "元朗大棠道23號合益廣場1字樓A135", "supp_tran": {"tran_name": ["現金提款, 轉賬, 結餘查詢, 更改私人密碼及其他基本服務", "強積金", "賬單繳費, 信用卡繳費, 慈善捐款", "PLUS", "JCB", "銀聯", "CIRRUS", "FISC"]}, "currencies": {"currency": ["港幣", "人民幣"]}, "latitude": "22.443108734210835", "longitude": "114.02875185012817"}, {"@id": "1815", "region": "香港", "area": "新界", "district": "元朗", "ob_name": "中國銀行(香港)有限公司", "addr": "港鐵落馬洲站一樓30號舖", "supp_tran": {"tran_name": ["現金提款, 轉賬, 結餘查詢, 更改私人密碼及其他基本服務", "強積金", "賬單繳費, 信用卡繳費, 慈善捐款", "PLUS", "JCB", "銀聯", "CIRRUS", "FISC"]}, "currencies": {"currency": ["港幣", "人民幣"]}, "latitude": "22.515195799705598", "longitude": "114.064562022686"}, {"@id": "1816", "region": "香港", "area": "新界", "district": "元朗", "ob_name": "中國銀行(香港)有限公司", "addr": "港鐵落馬洲站一樓30號舖", "supp_tran": {"tran_name": ["現金提款, 轉賬, 結餘查詢, 更改私人密碼及其他基本服務", "強積金", "賬單繳費, 信用卡繳費, 慈善捐款", "PLUS", "JCB", "銀聯", "CIRRUS", "FISC"]}, "currencies": {"currency": ["港幣", "人民幣"]}, "latitude": "22.515200755236894", "longitude": "114.06455934047699"}, {"@id": "1817", "region": "香港", "area": "新界", "district": "元朗", "ob_name": "中國銀行(香港)有限公司", "addr": "元朗大棠道23號合益廣場1字樓A135", "supp_tran": {"tran_name": ["現金提款, 轉賬, 結餘查詢, 更改私人密碼及其他基本服務", "強積金", "賬單繳費, 信用卡繳費, 慈善捐款", "PLUS", "JCB", "銀聯", "CIRRUS", "FISC"]}, "currencies": {"currency": "港幣"}, "latitude": "22.443086422705225", "longitude": "114.02874112129211"}, {"@id": "1818", "region": "香港", "area": "新界", "district": "元朗", "ob_name": "中國銀行(香港)有限公司", "addr": "元朗錦綉花園市中心E座地下6號A舖", "supp_tran": {"tran_name": ["現金提款, 轉賬, 結餘查詢, 更改私人密碼及其他基本服務", "強積金", "賬單繳費, 信用卡繳費, 慈善捐款", "PLUS", "JCB", "銀聯", "CIRRUS", "FISC"]}, "currencies": {"currency": ["港幣", "人民幣"]}, "latitude": "22.477803738957178", "longitude": "114.04524207115173"}, {"@id": "1819", "region": "香港", "area": "新界", "district": "元朗", "ob_name": "中國銀行(香港)有限公司", "addr": "新界元朗青山公路102號", "supp_tran": {"tran_name": ["現金提款, 轉賬, 結餘查詢, 更改私人密碼及其他基本服務", "強積金", "賬單繳費, 信用卡繳費, 慈善捐款", "PLUS", "JCB", "銀聯", "CIRRUS", "FISC"]}, "currencies": {"currency": ["港幣", "人民幣"]}, "latitude": "22.444278843697724", "longitude": "114.02905225753784"}, {"@id": "1820", "region": "香港", "area": "新界", "district": "元朗", "ob_name": "中國銀行(香港)有限公司", "addr": "元朗錦田永隆圍lot no. 14 D.D. 109, 3號地下", "supp_tran": {"tran_name": ["現金提款, 轉賬, 結餘查詢, 更改私人密碼及其他基本服務", "強積金", "賬單繳費, 信用卡繳費, 慈善捐款", "PLUS", "JCB", "銀聯", "CIRRUS", "FISC"]}, "currencies": {"currency": ["港幣", "人民幣"]}, "latitude": "22.43985865374948", "longitude": "114.06808912754059"}, {"@id": "1795", "region": "香港", "area": "新界", "district": "元朗", "ob_name": "東亞銀行有限公司", "addr": "元朗青山道77號地下", "supp_tran": {"tran_name": ["現金提款, 轉賬, 結餘查詢, 更改私人密碼及其他基本服務", "強積金", "跨行轉賬", "賬單繳費, 信用卡繳費, 慈善捐款", "PLUS", "JCB", "銀聯", "CIRRUS", "FISC", "Diners Club", "Discover"]}, "currencies": {"currency": ["港幣", "人民幣"]}, "latitude": "22.44461599205706", "longitude": "114.02953505516052"}, {"@id": "168282", "region": "香港", "area": "新界", "district": "元朗", "ob_name": "東亞銀行有限公司", "addr": "元朗青山公路77號", "supp_tran": {"tran_name": ["現金提款, 轉賬, 結餘查詢, 更改私人密碼及其他基本服務", "強積金", "跨行轉賬", "賬單繳費, 信用卡繳費, 慈善捐款", "PLUS", "JCB", "銀聯", "CIRRUS", "Diners Club", "FISC", "Discover"]}, "currencies": {"currency": "港幣"}, "latitude": "22.4445304", "longitude": "114.02945879999993"}, {"@id": "1796", "region": "香港", "area": "新界", "district": "元朗", "ob_name": "東亞銀行有限公司", "addr": "元朗青山道77號", "supp_tran": {"tran_name": ["現金提款, 轉賬, 結餘查詢, 更改私人密碼及其他基本服務", "強積金", "跨行轉賬", "賬單繳費, 信用卡繳費, 慈善捐款", "PLUS", "JCB", "銀聯", "CIRRUS", "Diners Club", "FISC", "Discover"]}, "currencies": {"currency": "港幣"}, "latitude": "22.444583764675784", "longitude": "114.0295135974884"}, {"@id": "196738", "region": "香港", "area": "新界", "district": "元朗", "ob_name": "東亞銀行有限公司", "addr": "新界元朗元龍街9號形點I,1樓1071舖", "supp_tran": {"tran_name": ["現金提款, 轉賬, 結餘查詢, 更改私人密碼及其他基本服務", "強積金", "跨行轉賬", "賬單繳費, 信用卡繳費, 慈善捐款", "PLUS", "JCB", "銀聯", "CIRRUS", "Diners Club", "FISC", "Discover"]}, "currencies": {"currency": ["港幣", "人民幣"]}, "latitude": "22.442972", "longitude": "114.036877"}, {"@id": "196737", "region": "香港", "area": "新界", "district": "元朗", "ob_name": "東亞銀行有限公司", "addr": "新界元朗元龍街9號形點I,1樓1071舖", "supp_tran": {"tran_name": ["現金提款, 轉賬, 結餘查詢, 更改私人密碼及其他基本服務", "強積金", "跨行轉賬", "賬單繳費, 信用卡繳費, 慈善捐款", "PLUS", "JCB", "銀聯", "CIRRUS", "Diners Club", "FISC", "Discover"]}, "currencies": {"currency": "港幣"}, "latitude": "22.44277863330825", "longitude": "114.03690918650818"}, {"@id": "137816", "region": "香港", "area": "新界", "district": "元朗", "ob_name": "東亞銀行有限公司", "addr": "元朗新田青山公路新田段1A號新田郵政局", "supp_tran": {"tran_name": ["現金提款, 轉賬, 結餘查詢, 更改私人密碼及其他基本服務", "強積金", "跨行轉賬", "賬單繳費, 信用卡繳費, 慈善捐款", "PLUS", "JCB", "銀聯", "CIRRUS", "Diners Club", "FISC", "Discover"]}, "currencies": {"currency": "港幣"}, "latitude": "22.4988784", "longitude": "114.07813759999999"}, {"@id": "1798", "region": "香港", "area": "新界", "district": "元朗", "ob_name": "東亞銀行有限公司", "addr": "元朗元朗廣場1樓", "supp_tran": {"tran_name": ["現金提款, 轉賬, 結餘查詢, 更改私人密碼及其他基本服務", "強積金", "跨行轉賬", "賬單繳費, 信用卡繳費, 慈善捐款", "PLUS", "JCB", "銀聯", "CIRRUS", "Diners Club", "FISC", "Discover"]}, "currencies": {"currency": "港幣"}, "latitude": "22.4448751", "longitude": "114.0239919"}, {"@id": "1830", "region": "香港", "area": "新界", "district": "元朗", "ob_name": "星展銀行(香港)有限公司", "addr": "元朗大棠路1-5號地下", "supp_tran": {"tran_name": ["現金提款, 轉賬, 結餘查詢, 更改私人密碼及其他基本服務", "賬單繳費, 信用卡繳費, 慈善捐款", "PLUS", "銀聯", "CIRRUS"]}, "currencies": {"currency": ["港幣", "人民幣"]}, "latitude": "22.4441995145529", "longitude": "114.02937144041061"}, {"@id": "1831", "region": "香港", "area": "新界", "district": "元朗", "ob_name": "星展銀行(香港)有限公司", "addr": "元朗大棠道1-5號地下", "supp_tran": {"tran_name": ["現金提款, 轉賬, 結餘查詢, 更改私人密碼及其他基本服務", "賬單繳費, 信用卡繳費, 慈善捐款", "PLUS", "銀聯", "CIRRUS"]}, "currencies": {"currency": ["港幣", "人民幣"]}, "latitude": "22.444234221059354", "longitude": "114.02941703796387"}, {"@id": "1845", "region": "香港", "area": "新界", "district": "元朗", "ob_name": "招商永隆銀行有限公司", "addr": "元朗安寧路37號", "supp_tran": {"tran_name": ["現金提款, 轉賬, 結餘查詢, 更改私人密碼及其他基本服務", "強積金", "跨行轉賬", "賬單繳費, 信用卡繳費, 慈善捐款", "PLUS", "JCB", "銀聯", "CIRRUS"]}, "currencies": {"currency": ["港幣", "人民幣"]}, "latitude": "22.445989367346364", "longitude": "114.02829051017761"}, {"@id": "1838", "region": "香港", "area": "新界", "district": "元朗", "ob_name": "上海商業銀行", "addr": "元朗康樂路17號", "supp_tran": {"tran_name": ["現金提款, 轉賬, 結餘查詢, 更改私人密碼及其他基本服務", "強積金", "跨行轉賬", "賬單繳費, 信用卡繳費, 慈善捐款", "PLUS", "JCB", "銀聯", "CIRRUS", "FISC"]}, "currencies": {"currency": ["港幣", "人民幣"]}, "latitude": "22.443716101596014", "longitude": "114.02730882167816"}, {"@id": "1793", "region": "香港", "area": "新界", "district": "元朗", "ob_name": "交通銀行股份有限公司", "addr": "元朗泰豐街2號文裕大廈", "supp_tran": {"tran_name": ["現金提款, 轉賬, 結餘查詢, 更改私人密碼及其他基本服務", "強積金", "跨行轉賬", "賬單繳費, 信用卡繳費, 慈善捐款", "PLUS", "銀聯", "CIRRUS"]}, "currencies": {"currency": ["港幣", "人民幣"]}, "latitude": "22.445716676583938", "longitude": "114.02999639511108"}, {"@id": "35978", "region": "香港", "area": "新界", "district": "元朗", "ob_name": "大新銀行有限公司", "addr": "新界元朗青山公路元朗段162-168號聯昇樓地下C號舖", "supp_tran": {"tran_name": ["現金提款, 轉賬, 結餘查詢, 更改私人密碼及其他基本服務", "強積金", "跨行轉賬", "賬單繳費, 信用卡繳費, 慈善捐款", "PLUS", "銀聯", "CIRRUS"]}, "currencies": {"currency": "港幣"}, "latitude": "22.444353214729794", "longitude": "114.02718007564545"}, {"@id": "101272", "region": "香港", "area": "新界", "district": "元朗", "ob_name": "南洋商業銀行有限公司", "addr": "元朗大棠道同益大廈地下", "supp_tran": {"tran_name": ["現金提款, 轉賬, 結餘查詢, 更改私人密碼及其他基本服務", "強積金", "賬單繳費, 信用卡繳費, 慈善捐款", "PLUS", "JCB", "銀聯", "CIRRUS", "FISC"]}, "currencies": {"currency": ["港幣", "人民幣"]}, "latitude": "22.44400862861224", "longitude": "114.0290093421936"}, {"@id": "4853", "region": "香港", "area": "新界", "district": "元朗", "ob_name": "富邦銀行(香港)有限公司", "addr": "新界元朗教育路9號興發樓地下", "supp_tran": {"tran_name": ["現金提款, 轉賬, 結餘查詢, 更改私人密碼及其他基本服務", "強積金", "跨行轉賬", "賬單繳費, 信用卡繳費, 慈善捐款", "PLUS", "銀聯", "CIRRUS"]}, "currencies": {"currency": ["港幣", "人民幣"]}, "latitude": "22.442815", "longitude": "114.027632"}, {"@id": "1827", "region": "香港", "area": "新界", "district": "元朗", "ob_name": "花旗銀行(香港)有限公司", "addr": "元朗青山公路203號地下", "supp_tran": {"tran_name": ["現金提款, 轉賬, 結餘查詢, 更改私人密碼及其他基本服務", "賬單繳費, 信用卡繳費, 慈善捐款", "PLUS", "銀聯", "CIRRUS"]}, "currencies": {"currency": ["港幣", "人民幣"]}, "latitude": "22.444633345259263", "longitude": "114.02610719203949"}, {"@id": "149938", "region": "香港", "area": "新界", "district": "元朗", "ob_name": "花旗銀行(香港)有限公司", "addr": "元朗大馬路128號", "supp_tran": {"tran_name": ["現金提款, 轉賬, 結餘查詢, 更改私人密碼及其他基本服務", "賬單繳費, 信用卡繳費, 慈善捐款", "PLUS", "銀聯", "CIRRUS"]}, "currencies": {"currency": ["港幣", "人民幣"]}, "latitude": "22.4443494", "longitude": "114.02826400000003"}, {"@id": "149939", "region": "香港", "area": "新界", "district": "元朗", "ob_name": "花旗銀行(香港)有限公司", "addr": "元朗大馬路128號", "supp_tran": {"tran_name": ["現金提款, 轉賬, 結餘查詢, 更改私人密碼及其他基本服務", "賬單繳費, 信用卡繳費, 慈善捐款", "PLUS", "銀聯", "CIRRUS"]}, "currencies": {"currency": ["港幣", "人民幣"]}, "latitude": "22.4443494", "longitude": "114.02826400000003"}]}}}