{"xml_msg": {"@query": "region=2,area=1,district=11,transaction=2", "supp_cb": null, "atms": {"atm": [{"@id": "631", "region": "香港", "area": "香港", "district": "鰂魚涌", "ob_name": "東亞銀行有限公司", "addr": "香港鰂魚涌英皇道1032-1044號福昌樓地下G2-G4號", "supp_tran": {"tran_name": ["現金提款, 轉賬, 結餘查詢, 更改私人密碼及其他基本服務", "強積金", "跨行轉賬", "賬單繳費, 信用卡繳費, 慈善捐款", "PLUS", "JCB", "銀聯", "CIRRUS", "Diners Club", "FISC", "Discover"]}, "currencies": {"currency": "港幣"}, "latitude": "22.28453479683368", "longitude": "114.21240270137787"}, {"@id": "35973", "region": "香港", "area": "香港", "district": "鰂魚涌", "ob_name": "東亞銀行有限公司", "addr": "香港鰂魚涌英皇道1032-1044號福昌樓地下G2-G4號", "supp_tran": {"tran_name": ["現金提款, 轉賬, 結餘查詢, 更改私人密碼及其他基本服務", "強積金", "跨行轉賬", "賬單繳費, 信用卡繳費, 慈善捐款", "PLUS", "JCB", "銀聯", "CIRRUS", "Diners Club", "FISC", "Discover"]}, "currencies": {"currency": ["港幣", "人民幣"]}, "latitude": "22.284594361952376", "longitude": "114.21240270137787"}, {"@id": "632", "region": "香港", "area": "香港", "district": "鰂魚涌", "ob_name": "東亞銀行有限公司", "addr": "鰂魚涌太古城耀星閣G1010-1011號", "supp_tran": {"tran_name": ["現金提款, 轉賬, 結餘查詢, 更改私人密碼及其他基本服務", "強積金", "跨行轉賬", "賬單繳費, 信用卡繳費, 慈善捐款", "PLUS", "JCB", "銀聯", "CIRRUS", "Diners Club", "FISC", "Discover"]}, "currencies": {"currency": "港幣"}, "latitude": "22.28635648523375", "longitude": "114.21881854534149"}, {"@id": "41409", "region": "香港", "area": "香港", "district": "鰂魚涌", "ob_name": "東亞銀行有限公司", "addr": "香港鰂魚涌英皇道1035號地下", "supp_tran": {"tran_name": ["現金提款, 轉賬, 結餘查詢, 更改私人密碼及其他基本服務", "強積金", "跨行轉賬", "賬單繳費, 信用卡繳費, 慈善捐款", "PLUS", "JCB", "銀聯", "CIRRUS", "Diners Club", "FISC", "Discover"]}, "currencies": {"currency": "港幣"}, "latitude": "22.2847378", "longitude": "114.2134872"}, {"@id": "41410", "region": "香港", "area": "香港", "district": "鰂魚涌", "ob_name": "東亞銀行有限公司", "addr": "香港鰂魚涌英皇道1035號地下", "supp_tran": {"tran_name": ["現金提款, 轉賬, 結餘查詢, 更改私人密碼及其他基本服務", "強積金", "跨行轉賬", "賬單繳費, 信用卡繳費, 慈善捐款", "PLUS", "JCB", "銀聯", "CIRRUS", "Diners Club", "FISC", "Discover"]}, "currencies": {"currency": ["港幣", "人民幣"]}, "latitude": "22.2847378", "longitude": "114.2134872"}, {"@id": "644", "region": "香港", "area": "香港", "district": "鰂魚涌", "ob_name": "中信銀行(國際)有限公司", "addr": "鰂魚涌英皇道1025號惠安苑地下", "supp_tran": {"tran_name": ["現金提款, 轉賬, 結餘查詢, 更改私人密碼及其他基本服務", "跨行轉賬", "賬單繳費, 信用卡繳費, 慈善捐款", "銀聯"]}, "currencies": {"currency": ["港幣", "人民幣"]}, "latitude": "22.28478298466088", "longitude": "114.2127674818039"}, {"@id": "128635", "region": "香港", "area": "香港", "district": "鰂魚涌", "ob_name": "中信銀行(國際)有限公司", "addr": "香港鰂魚涌太古城中心063號舖", "supp_tran": {"tran_name": ["現金提款, 轉賬, 結餘查詢, 更改私人密碼及其他基本服務", "跨行轉賬", "賬單繳費, 信用卡繳費, 慈善捐款", "銀聯"]}, "currencies": {"currency": ["港幣", "人民幣"]}, "latitude": "22.28565163858647", "longitude": "114.21732723712921"}, {"@id": "128636", "region": "香港", "area": "香港", "district": "鰂魚涌", "ob_name": "中信銀行(國際)有限公司", "addr": "香港鰂魚涌太古城中心063號舖", "supp_tran": {"tran_name": ["現金提款, 轉賬, 結餘查詢, 更改私人密碼及其他基本服務", "跨行轉賬", "賬單繳費, 信用卡繳費, 慈善捐款", "銀聯"]}, "currencies": {"currency": ["港幣", "人民幣"]}, "latitude": "22.285669011609926", "longitude": "114.21751230955124"}, {"@id": "215667", "region": "香港", "area": "香港", "district": "鰂魚涌", "ob_name": "招商永隆銀行有限公司", "addr": "華蘭路1號A", "supp_tran": {"tran_name": ["現金提款, 轉賬, 結餘查詢, 更改私人密碼及其他基本服務", "強積金", "跨行轉賬", "賬單繳費, 信用卡繳費, 慈善捐款", "PLUS", "JCB", "銀聯", "CIRRUS"]}, "currencies": {"currency": ["港幣", "人民幣"]}, "latitude": "22.2851089", "longitude": "114.21245490000001"}, {"@id": "77447", "region": "香港", "area": "香港", "district": "鰂魚涌", "ob_name": "上海商業銀行", "addr": "鰂魚涌太古城太裕路G503號", "supp_tran": {"tran_name": ["現金提款, 轉賬, 結餘查詢, 更改私人密碼及其他基本服務", "強積金", "跨行轉賬", "賬單繳費, 信用卡繳費, 慈善捐款", "PLUS", "JCB", "銀聯", "CIRRUS", "FISC"]}, "currencies": {"currency": ["港幣", "人民幣"]}, "latitude": "22.286198", "longitude": "114.215035"}, {"@id": "629", "region": "香港", "area": "香港", "district": "鰂魚涌", "ob_name": "交通銀行股份有限公司", "addr": "香港太古城道18號太古城中心第二期地下38號舖", "supp_tran": {"tran_name": ["現金提款, 轉賬, 結餘查詢, 更改私人密碼及其他基本服務", "強積金", "跨行轉賬", "賬單繳費, 信用卡繳費, 慈善捐款", "PLUS", "銀聯", "CIRRUS"]}, "currencies": {"currency": ["港幣", "人民幣"]}, "latitude": "22.286594742451705", "longitude": "114.21738624572754"}, {"@id": "630", "region": "香港", "area": "香港", "district": "鰂魚涌", "ob_name": "交通銀行股份有限公司", "addr": "香港鰂魚涌英皇道981A-981F號中興大廈地下3號及4號舖", "supp_tran": {"tran_name": ["現金提款, 轉賬, 結餘查詢, 更改私人密碼及其他基本服務", "強積金", "跨行轉賬", "賬單繳費, 信用卡繳費, 慈善捐款", "PLUS", "銀聯", "CIRRUS"]}, "currencies": {"currency": ["港幣", "人民幣"]}, "latitude": "22.286468168355224", "longitude": "114.21083092689514"}, {"@id": "658", "region": "香港", "area": "香港", "district": "鰂魚涌", "ob_name": "大眾銀行(香港)有限公司", "addr": "香港鰂魚涌英皇道 1010-1026 號海景樓地下 8 號舖", "supp_tran": {"tran_name": ["現金提款, 轉賬, 結餘查詢, 更改私人密碼及其他基本服務", "強積金", "跨行轉賬", "賬單繳費, 信用卡繳費, 慈善捐款", "JCB", "銀聯"]}, "currencies": {"currency": ["港幣", "人民幣"]}, "latitude": "22.28470356460411", "longitude": "114.21204596757889"}, {"@id": "650", "region": "香港", "area": "香港", "district": "鰂魚涌", "ob_name": "集友銀行有限公司", "addr": "香港鰂魚涌英皇道967-967A號", "supp_tran": {"tran_name": ["現金提款, 轉賬, 結餘查詢, 更改私人密碼及其他基本服務", "強積金", "跨行轉賬", "賬單繳費, 信用卡繳費, 慈善捐款", "PLUS", "JCB", "銀聯", "CIRRUS", "FISC"]}, "currencies": {"currency": ["港幣", "人民幣"]}, "latitude": "22.287892740788077", "longitude": "114.21025961637497"}, {"@id": "41411", "region": "香港", "area": "香港", "district": "鰂魚涌", "ob_name": "大新銀行有限公司", "addr": "香港太古城道18號太古城中心商場2期B1層, APITA", "supp_tran": {"tran_name": ["現金提款, 轉賬, 結餘查詢, 更改私人密碼及其他基本服務", "強積金", "跨行轉賬", "賬單繳費, 信用卡繳費, 慈善捐款", "PLUS", "銀聯", "CIRRUS"]}, "currencies": {"currency": "港幣"}, "latitude": "22.286813144544766", "longitude": "114.2173969745636"}, {"@id": "654", "region": "香港", "area": "香港", "district": "鰂魚涌", "ob_name": "大新銀行有限公司", "addr": "香港港島東太古城太裕路1號安盛台地下501號舖", "supp_tran": {"tran_name": ["現金提款, 轉賬, 結餘查詢, 更改私人密碼及其他基本服務", "強積金", "跨行轉賬", "賬單繳費, 信用卡繳費, 慈善捐款", "PLUS", "銀聯", "CIRRUS"]}, "currencies": {"currency": "港幣"}, "latitude": "22.285969316388527", "longitude": "114.2148756980896"}, {"@id": "656", "region": "香港", "area": "香港", "district": "鰂魚涌", "ob_name": "中國工商銀行(亞洲)有限公司", "addr": "香港鰂魚涌華蘭路2-12號惠安苑地下低層SLG1號舖", "supp_tran": {"tran_name": ["現金提款, 轉賬, 結餘查詢, 更改私人密碼及其他基本服務", "跨行轉賬", "賬單繳費, 信用卡繳費, 慈善捐款", "JCB", "銀聯", "CIRRUS"]}, "currencies": {"currency": ["港幣", "人民幣"]}, "latitude": "22.284853", "longitude": "114.2126076"}, {"@id": "41421", "region": "香港", "area": "香港", "district": "鰂魚涌", "ob_name": "中國工商銀行(亞洲)有限公司", "addr": "港鐵太古站 TAK ATM 2", "supp_tran": {"tran_name": ["現金提款, 轉賬, 結餘查詢, 更改私人密碼及其他基本服務", "跨行轉賬", "賬單繳費, 信用卡繳費, 慈善捐款", "JCB", "銀聯", "CIRRUS"]}, "currencies": {"currency": ["港幣", "人民幣"]}, "latitude": "22.284658890802348", "longitude": "114.21632409095764"}]}}}