{"xml_msg": {"@query": "region=2,area=3,district=64,transaction=2", "supp_cb": null, "atms": {"atm": [{"@id": "1635", "region": "香港", "area": "新界", "district": "將軍澳", "ob_name": "中國建設銀行(亞洲)股份有限公司", "addr": "將軍澳新都城中心第三期商場一樓190號舖", "supp_tran": {"tran_name": ["現金提款, 轉賬, 結餘查詢, 更改私人密碼及其他基本服務", "跨行轉賬", "賬單繳費, 信用卡繳費, 慈善捐款", "PLUS", "銀聯"]}, "currencies": {"currency": ["港幣", "人民幣"]}, "latitude": "22.322462709698996", "longitude": "114.25685226917267"}, {"@id": "1613", "region": "香港", "area": "新界", "district": "將軍澳", "ob_name": "東亞銀行有限公司", "addr": "將軍澳重華路8號東港城2樓217B號", "supp_tran": {"tran_name": ["現金提款, 轉賬, 結餘查詢, 更改私人密碼及其他基本服務", "強積金", "跨行轉賬", "賬單繳費, 信用卡繳費, 慈善捐款", "PLUS", "JCB", "銀聯", "CIRRUS", "Diners Club", "FISC", "Discover"]}, "currencies": {"currency": ["港幣", "人民幣"]}, "latitude": "22.31669874765236", "longitude": "114.26592350006104"}, {"@id": "212457", "region": "香港", "area": "新界", "district": "將軍澳", "ob_name": "東亞銀行有限公司", "addr": "將軍澳重華路8號東港城2樓217B號", "supp_tran": {"tran_name": ["現金提款, 轉賬, 結餘查詢, 更改私人密碼及其他基本服務", "強積金", "跨行轉賬", "賬單繳費, 信用卡繳費, 慈善捐款", "PLUS", "JCB", "銀聯", "CIRRUS", "Diners Club", "FISC", "Discover"]}, "currencies": {"currency": "港幣"}, "latitude": "22.3159674", "longitude": "114.2659701"}, {"@id": "1614", "region": "香港", "area": "新界", "district": "將軍澳", "ob_name": "東亞銀行有限公司", "addr": "將軍澳新都城中心1期商場2樓243號", "supp_tran": {"tran_name": ["現金提款, 轉賬, 結餘查詢, 更改私人密碼及其他基本服務", "強積金", "跨行轉賬", "賬單繳費, 信用卡繳費, 慈善捐款", "PLUS", "JCB", "銀聯", "CIRRUS", "Diners Club", "FISC", "Discover"]}, "currencies": {"currency": ["港幣", "人民幣"]}, "latitude": "22.3214999982029", "longitude": "114.25758183002472"}, {"@id": "101258", "region": "香港", "area": "新界", "district": "將軍澳", "ob_name": "東亞銀行有限公司", "addr": "將軍澳運亨路1號新都城中心1期2樓243號", "supp_tran": {"tran_name": ["現金提款, 轉賬, 結餘查詢, 更改私人密碼及其他基本服務", "強積金", "跨行轉賬", "賬單繳費, 信用卡繳費, 慈善捐款", "PLUS", "JCB", "銀聯", "CIRRUS", "Diners Club", "FISC", "Discover"]}, "currencies": {"currency": "港幣"}, "latitude": "22.320729", "longitude": "114.256992"}, {"@id": "1615", "region": "香港", "area": "新界", "district": "將軍澳", "ob_name": "東亞銀行有限公司", "addr": "將軍澳唐德街9號將軍澳中心1樓156號", "supp_tran": {"tran_name": ["現金提款, 轉賬, 結餘查詢, 更改私人密碼及其他基本服務", "強積金", "跨行轉賬", "賬單繳費, 信用卡繳費, 慈善捐款", "PLUS", "JCB", "銀聯", "CIRRUS", "FISC", "Diners Club", "Discover"]}, "currencies": {"currency": "港幣"}, "latitude": "22.306621787681767", "longitude": "114.25659477710724"}, {"@id": "7320", "region": "香港", "area": "新界", "district": "將軍澳", "ob_name": "東亞銀行有限公司", "addr": "將軍澳唐德街9號將軍澳中心1樓156號", "supp_tran": {"tran_name": ["現金提款, 轉賬, 結餘查詢, 更改私人密碼及其他基本服務", "強積金", "跨行轉賬", "賬單繳費, 信用卡繳費, 慈善捐款", "PLUS", "JCB", "銀聯", "CIRRUS", "Diners Club", "FISC", "Discover"]}, "currencies": {"currency": ["港幣", "人民幣"]}, "latitude": "22.30759949061165", "longitude": "114.2580109834671"}, {"@id": "66132", "region": "香港", "area": "新界", "district": "將軍澳", "ob_name": "東亞銀行有限公司", "addr": "新界將軍澳培成路8號南豐廣場1樓中庭位置(近B108舖位)", "supp_tran": {"tran_name": ["現金提款, 轉賬, 結餘查詢, 更改私人密碼及其他基本服務", "強積金", "跨行轉賬", "賬單繳費, 信用卡繳費, 慈善捐款", "PLUS", "JCB", "銀聯", "CIRRUS", "Diners Club", "FISC", "Discover"]}, "currencies": {"currency": "港幣"}, "latitude": "22.314453144843885", "longitude": "114.26342904567719"}, {"@id": "68937", "region": "香港", "area": "新界", "district": "將軍澳", "ob_name": "東亞銀行有限公司", "addr": "新界將軍澳尚德邨尚德商場地下自動櫃員機 2號", "supp_tran": {"tran_name": ["現金提款, 轉賬, 結餘查詢, 更改私人密碼及其他基本服務", "強積金", "跨行轉賬", "賬單繳費, 信用卡繳費, 慈善捐款", "PLUS", "JCB", "銀聯", "CIRRUS", "Diners Club", "FISC", "Discover"]}, "currencies": {"currency": ["港幣", "人民幣"]}, "latitude": "22.310934547582487", "longitude": "114.259073138237"}, {"@id": "1617", "region": "香港", "area": "新界", "district": "將軍澳", "ob_name": "東亞銀行有限公司", "addr": "將軍澳明德邨商場地下5號舖對出", "supp_tran": {"tran_name": ["現金提款, 轉賬, 結餘查詢, 更改私人密碼及其他基本服務", "強積金", "跨行轉賬", "賬單繳費, 信用卡繳費, 慈善捐款", "PLUS", "JCB", "銀聯", "CIRRUS", "Diners Club", "FISC", "Discover"]}, "currencies": {"currency": "港幣"}, "latitude": "22.316532499842882", "longitude": "114.26875591278076"}, {"@id": "1618", "region": "香港", "area": "新界", "district": "將軍澳", "ob_name": "東亞銀行有限公司", "addr": "將軍澳坑口培成路十五號連理街商場地下﹝坑口站A出口側﹞", "supp_tran": {"tran_name": ["現金提款, 轉賬, 結餘查詢, 更改私人密碼及其他基本服務", "強積金", "跨行轉賬", "賬單繳費, 信用卡繳費, 慈善捐款", "PLUS", "JCB", "銀聯", "CIRRUS", "Diners Club", "FISC", "Discover"]}, "currencies": {"currency": "港幣"}, "latitude": "22.3157373", "longitude": "114.2643617"}, {"@id": "1619", "region": "香港", "area": "新界", "district": "將軍澳", "ob_name": "東亞銀行有限公司", "addr": "將軍澳坑口培成路15號連理街商場地下﹝坑口站A出口側﹞", "supp_tran": {"tran_name": ["現金提款, 轉賬, 結餘查詢, 更改私人密碼及其他基本服務", "強積金", "跨行轉賬", "賬單繳費, 信用卡繳費, 慈善捐款", "PLUS", "JCB", "銀聯", "CIRRUS", "Diners Club", "FISC", "Discover"]}, "currencies": {"currency": ["港幣", "人民幣"]}, "latitude": "22.315716145785753", "longitude": "114.26436513662338"}, {"@id": "12346", "region": "香港", "area": "新界", "district": "將軍澳", "ob_name": "中信銀行(國際)有限公司", "addr": "將軍澳重華路八號東港城商舖217G", "supp_tran": {"tran_name": ["現金提款, 轉賬, 結餘查詢, 更改私人密碼及其他基本服務", "跨行轉賬", "賬單繳費, 信用卡繳費, 慈善捐款", "銀聯"]}, "currencies": {"currency": ["港幣", "人民幣"]}, "latitude": "22.31671115419737", "longitude": "114.26594495773315"}, {"@id": "12347", "region": "香港", "area": "新界", "district": "將軍澳", "ob_name": "中信銀行(國際)有限公司", "addr": "將軍澳重華路八號東港城商舖217G", "supp_tran": {"tran_name": ["現金提款, 轉賬, 結餘查詢, 更改私人密碼及其他基本服務", "跨行轉賬", "賬單繳費, 信用卡繳費, 慈善捐款", "銀聯"]}, "currencies": {"currency": ["港幣", "人民幣"]}, "latitude": "22.31675519742324", "longitude": "114.26596775650978"}, {"@id": "4844", "region": "香港", "area": "新界", "district": "將軍澳", "ob_name": "招商永隆銀行有限公司", "addr": "將軍澳新都城中心1期商場 238號舖", "supp_tran": {"tran_name": ["現金提款, 轉賬, 結餘查詢, 更改私人密碼及其他基本服務", "強積金", "跨行轉賬", "賬單繳費, 信用卡繳費, 慈善捐款", "PLUS", "JCB", "銀聯", "CIRRUS"]}, "currencies": {"currency": ["港幣", "人民幣"]}, "latitude": "22.320973977775527", "longitude": "114.2572170495987"}, {"@id": "1649", "region": "香港", "area": "新界", "district": "將軍澳", "ob_name": "上海商業銀行", "addr": "將軍澳貿業路8號新都城商埸第三期地下G1-2號鋪", "supp_tran": {"tran_name": ["現金提款, 轉賬, 結餘查詢, 更改私人密碼及其他基本服務", "強積金", "跨行轉賬", "賬單繳費, 信用卡繳費, 慈善捐款", "PLUS", "JCB", "銀聯", "CIRRUS", "FISC"]}, "currencies": {"currency": ["港幣", "人民幣"]}, "latitude": "22.32261654442572", "longitude": "114.2572009563446"}, {"@id": "1611", "region": "香港", "area": "新界", "district": "將軍澳", "ob_name": "交通銀行股份有限公司", "addr": "新界將軍澳新都城商場一期252A、252B及253號舖", "supp_tran": {"tran_name": ["現金提款, 轉賬, 結餘查詢, 更改私人密碼及其他基本服務", "強積金", "跨行轉賬", "賬單繳費, 信用卡繳費, 慈善捐款", "PLUS", "銀聯", "CIRRUS"]}, "currencies": {"currency": ["港幣", "人民幣"]}, "latitude": "22.321557066337576", "longitude": "114.25763815641403"}, {"@id": "1612", "region": "香港", "area": "新界", "district": "將軍澳", "ob_name": "交通銀行股份有限公司", "addr": "將軍澳景嶺路8號新都城第L2層064&065號舖", "supp_tran": {"tran_name": ["現金提款, 轉賬, 結餘查詢, 更改私人密碼及其他基本服務", "強積金", "跨行轉賬", "賬單繳費, 信用卡繳費, 慈善捐款", "PLUS", "銀聯", "CIRRUS"]}, "currencies": {"currency": ["港幣", "人民幣"]}, "latitude": "22.305276814598994", "longitude": "114.25285041332245"}, {"@id": "1647", "region": "香港", "area": "新界", "district": "將軍澳", "ob_name": "大眾銀行(香港)有限公司", "addr": "新界將軍澳新都城中心一期地下G105-106號舖", "supp_tran": {"tran_name": ["現金提款, 轉賬, 結餘查詢, 更改私人密碼及其他基本服務", "強積金", "跨行轉賬", "賬單繳費, 信用卡繳費, 慈善捐款", "JCB", "銀聯"]}, "currencies": {"currency": ["港幣", "人民幣"]}, "latitude": "22.32155210389202", "longitude": "114.25764352083206"}, {"@id": "95179", "region": "香港", "area": "新界", "district": "將軍澳", "ob_name": "華僑永亨銀行有限公司", "addr": "將軍澳新都城中心二期商場一樓1022-23號舖", "supp_tran": {"tran_name": ["現金提款, 轉賬, 結餘查詢, 更改私人密碼及其他基本服務", "強積金", "跨行轉賬", "賬單繳費, 信用卡繳費, 慈善捐款", "JCB", "銀聯"]}, "currencies": {"currency": "港幣"}, "latitude": "22.322779", "longitude": "114.258671"}, {"@id": "1643", "region": "香港", "area": "新界", "district": "將軍澳", "ob_name": "大新銀行有限公司", "addr": "將軍澳唐俊街9號君薈坊地下層G10號商鋪", "supp_tran": {"tran_name": ["現金提款, 轉賬, 結餘查詢, 更改私人密碼及其他基本服務", "強積金", "跨行轉賬", "賬單繳費, 信用卡繳費, 慈善捐款", "PLUS", "銀聯", "CIRRUS"]}, "currencies": {"currency": "港幣"}, "latitude": "22.308343929876685", "longitude": "114.2611813545227"}, {"@id": "1645", "region": "香港", "area": "新界", "district": "將軍澳", "ob_name": "大新銀行有限公司", "addr": "將軍澳MCP Discovery一樓127號舖", "supp_tran": {"tran_name": ["現金提款, 轉賬, 結餘查詢, 更改私人密碼及其他基本服務", "強積金", "跨行轉賬", "賬單繳費, 信用卡繳費, 慈善捐款", "PLUS", "銀聯", "CIRRUS"]}, "currencies": {"currency": "港幣"}, "latitude": "22.322889476588063", "longitude": "114.25696760416031"}, {"@id": "1638", "region": "香港", "area": "新界", "district": "將軍澳", "ob_name": "創興銀行有限公司", "addr": "將軍澳尚德邨尚德商場237號", "supp_tran": {"tran_name": ["現金提款, 轉賬, 結餘查詢, 更改私人密碼及其他基本服務", "強積金", "跨行轉賬", "賬單繳費, 信用卡繳費, 慈善捐款", "銀聯"]}, "currencies": {"currency": "港幣"}, "latitude": "22.31101891555021", "longitude": "114.25909459590912"}, {"@id": "1646", "region": "香港", "area": "新界", "district": "將軍澳", "ob_name": "中國工商銀行(亞洲)有限公司", "addr": "新界將軍澳欣景路8號新都城中心2期商場1樓1025A號舖", "supp_tran": {"tran_name": ["現金提款, 轉賬, 結餘查詢, 更改私人密碼及其他基本服務", "跨行轉賬", "賬單繳費, 信用卡繳費, 慈善捐款", "JCB", "銀聯", "CIRRUS"]}, "currencies": {"currency": ["港幣", "人民幣"]}, "latitude": "22.323025942469023", "longitude": "114.25795465707779"}, {"@id": "95196", "region": "香港", "area": "新界", "district": "將軍澳", "ob_name": "中國工商銀行(亞洲)有限公司", "addr": "將軍澳唐賢街9號POPCORN1樓1號", "supp_tran": {"tran_name": ["現金提款, 轉賬, 結餘查詢, 更改私人密碼及其他基本服務", "跨行轉賬", "賬單繳費, 信用卡繳費, 慈善捐款", "JCB", "銀聯", "CIRRUS"]}, "currencies": {"currency": ["港幣", "人民幣"]}, "latitude": "22.30740097280407", "longitude": "114.25980806350708"}, {"@id": "128618", "region": "香港", "area": "新界", "district": "將軍澳", "ob_name": "中國工商銀行(亞洲)有限公司", "addr": "新界將軍澳調景嶺彩明街1號彩明商場2樓", "supp_tran": {"tran_name": ["現金提款, 轉賬, 結餘查詢, 更改私人密碼及其他基本服務", "跨行轉賬", "賬單繳費, 信用卡繳費, 慈善捐款", "JCB", "銀聯", "CIRRUS"]}, "currencies": {"currency": ["港幣", "人民幣"]}, "latitude": "22.3038", "longitude": "114.252098"}, {"@id": "258325", "region": "香港", "area": "新界", "district": "將軍澳", "ob_name": "中國工商銀行(亞洲)有限公司", "addr": "新界將軍澳唐德街1號將軍澳廣場1樓", "supp_tran": {"tran_name": ["現金提款, 轉賬, 結餘查詢, 更改私人密碼及其他基本服務", "跨行轉賬", "賬單繳費, 信用卡繳費, 慈善捐款", "JCB", "銀聯", "CIRRUS"]}, "currencies": {"currency": ["港幣", "人民幣"]}, "latitude": "22.309479", "longitude": "114.262969"}]}}}