{"xml_msg": {"@query": "region=2,area=1,district=14,transaction=575", "supp_cb": null, "atms": {"atm": [{"@id": "291842", "region": "香港", "area": "香港", "district": "筲箕灣", "ob_name": "中國銀行(香港)有限公司", "addr": "香港筲箕灣愛禮街2號愛蝶灣商舖40號", "supp_tran": {"tran_name": ["現金提款, 轉賬, 結餘查詢, 更改私人密碼及其他基本服務", "強積金", "賬單繳費, 信用卡繳費, 慈善捐款", "PLUS", "JCB", "銀聯", "CIRRUS", "FISC"]}, "currencies": {"currency": ["港幣", "人民幣"]}, "latitude": "22.281350", "longitude": "114.228612"}, {"@id": "291841", "region": "香港", "area": "香港", "district": "筲箕灣", "ob_name": "中國銀行(香港)有限公司", "addr": "香港筲箕灣愛禮街2號愛蝶灣商舖40號", "supp_tran": {"tran_name": ["現金提款, 轉賬, 結餘查詢, 更改私人密碼及其他基本服務", "強積金", "賬單繳費, 信用卡繳費, 慈善捐款", "PLUS", "JCB", "銀聯", "CIRRUS", "FISC"]}, "currencies": {"currency": "港幣"}, "latitude": "22.281350", "longitude": "114.228612"}, {"@id": "674", "region": "香港", "area": "香港", "district": "筲箕灣", "ob_name": "中國銀行(香港)有限公司", "addr": "筲箕灣筲箕灣道260-262號", "supp_tran": {"tran_name": ["現金提款, 轉賬, 結餘查詢, 更改私人密碼及其他基本服務", "強積金", "賬單繳費, 信用卡繳費, 慈善捐款", "PLUS", "JCB", "銀聯", "CIRRUS", "FISC"]}, "currencies": {"currency": ["港幣", "人民幣"]}, "latitude": "22.280087196284995", "longitude": "114.22524780035019"}, {"@id": "675", "region": "香港", "area": "香港", "district": "筲箕灣", "ob_name": "中國銀行(香港)有限公司", "addr": "筲箕灣港鐵站", "supp_tran": {"tran_name": ["現金提款, 轉賬, 結餘查詢, 更改私人密碼及其他基本服務", "強積金", "賬單繳費, 信用卡繳費, 慈善捐款", "PLUS", "JCB", "銀聯", "CIRRUS", "FISC"]}, "currencies": {"currency": ["港幣", "人民幣"]}, "latitude": "22.278900814649326", "longitude": "114.22918796539307"}, {"@id": "676", "region": "香港", "area": "香港", "district": "筲箕灣", "ob_name": "中國銀行(香港)有限公司", "addr": "西灣河地鐵站", "supp_tran": {"tran_name": ["現金提款, 轉賬, 結餘查詢, 更改私人密碼及其他基本服務", "強積金", "賬單繳費, 信用卡繳費, 慈善捐款", "PLUS", "JCB", "銀聯", "CIRRUS", "FISC"]}, "currencies": {"currency": ["港幣", "人民幣"]}, "latitude": "22.281809665514647", "longitude": "114.22247171401978"}, {"@id": "677", "region": "香港", "area": "香港", "district": "筲箕灣", "ob_name": "中國銀行(香港)有限公司", "addr": "筲箕灣耀東商場1樓ATM No.1", "supp_tran": {"tran_name": ["現金提款, 轉賬, 結餘查詢, 更改私人密碼及其他基本服務", "強積金", "賬單繳費, 信用卡繳費, 慈善捐款", "PLUS", "JCB", "銀聯", "CIRRUS", "FISC"]}, "currencies": {"currency": ["港幣", "人民幣"]}, "latitude": "22.27725276990215", "longitude": "114.22428488731384"}, {"@id": "670", "region": "香港", "area": "香港", "district": "筲箕灣", "ob_name": "東亞銀行有限公司", "addr": "筲箕灣筲箕灣道289至293號嘉福大廈地下", "supp_tran": {"tran_name": ["現金提款, 轉賬, 結餘查詢, 更改私人密碼及其他基本服務", "強積金", "跨行轉賬", "賬單繳費, 信用卡繳費, 慈善捐款", "PLUS", "JCB", "銀聯", "CIRRUS", "Diners Club", "FISC", "Discover"]}, "currencies": {"currency": ["港幣", "人民幣"]}, "latitude": "22.27866999027447", "longitude": "114.22647625207901"}, {"@id": "68942", "region": "香港", "area": "香港", "district": "筲箕灣", "ob_name": "東亞銀行有限公司", "addr": "香港筲箕灣愛東商場1樓自動櫃員機 2號", "supp_tran": {"tran_name": ["現金提款, 轉賬, 結餘查詢, 更改私人密碼及其他基本服務", "強積金", "跨行轉賬", "賬單繳費, 信用卡繳費, 慈善捐款", "PLUS", "JCB", "銀聯", "CIRRUS", "Diners Club", "FISC", "Discover"]}, "currencies": {"currency": "港幣"}, "latitude": "22.280916168274505", "longitude": "114.22777980566025"}, {"@id": "684", "region": "香港", "area": "香港", "district": "筲箕灣", "ob_name": "上海商業銀行", "addr": "筲箕灣東大街136號", "supp_tran": {"tran_name": ["現金提款, 轉賬, 結餘查詢, 更改私人密碼及其他基本服務", "強積金", "跨行轉賬", "賬單繳費, 信用卡繳費, 慈善捐款", "PLUS", "JCB", "銀聯", "CIRRUS", "FISC"]}, "currencies": {"currency": ["港幣", "人民幣"]}, "latitude": "22.281521761471822", "longitude": "114.2222410440445"}, {"@id": "77470", "region": "香港", "area": "香港", "district": "筲箕灣", "ob_name": "南洋商業銀行有限公司", "addr": "香港筲箕灣道63號", "supp_tran": {"tran_name": ["現金提款, 轉賬, 結餘查詢, 更改私人密碼及其他基本服務", "強積金", "賬單繳費, 信用卡繳費, 慈善捐款", "PLUS", "JCB", "銀聯", "CIRRUS", "FISC"]}, "currencies": {"currency": ["港幣", "人民幣"]}, "latitude": "22.282562", "longitude": "114.2216987"}]}}}