{"xml_msg": {"@query": "region=2,area=3,district=59,transaction=7", "supp_cb": null, "atms": {"atm": [{"@id": "1579", "region": "香港", "area": "新界", "district": "大埔", "ob_name": "渣打銀行(香港)有限公司", "addr": "大埔大埔墟廣福道23-25號", "supp_tran": {"tran_name": ["現金提款, 轉賬, 結餘查詢, 更改私人密碼及其他基本服務", "賬單繳費, 信用卡繳費, 慈善捐款", "PLUS", "銀聯", "CIRRUS"]}, "currencies": {"currency": ["港幣", "人民幣"]}, "latitude": "22.44924426205158", "longitude": "114.16568130254745"}, {"@id": "1580", "region": "香港", "area": "新界", "district": "大埔", "ob_name": "渣打銀行(香港)有限公司", "addr": "大埔大埔墟廣福道23-25號", "supp_tran": {"tran_name": ["現金提款, 轉賬, 結餘查詢, 更改私人密碼及其他基本服務", "賬單繳費, 信用卡繳費, 慈善捐款", "PLUS", "銀聯", "CIRRUS"]}, "currencies": {"currency": ["港幣", "人民幣"]}, "latitude": "22.44926161467468", "longitude": "114.16567593812943"}, {"@id": "1505", "region": "香港", "area": "新界", "district": "大埔", "ob_name": "渣打銀行(香港)有限公司", "addr": "新界大埔白石角香港科學園1期地下S009號舖", "supp_tran": {"tran_name": ["現金提款, 轉賬, 結餘查詢, 更改私人密碼及其他基本服務", "賬單繳費, 信用卡繳費, 慈善捐款", "PLUS", "銀聯", "CIRRUS"]}, "currencies": {"currency": ["港幣", "人民幣"]}, "latitude": "22.42516168735858", "longitude": "114.2132019996643"}, {"@id": "1577", "region": "香港", "area": "新界", "district": "大埔", "ob_name": "渣打銀行(香港)有限公司", "addr": "新界大埔大埔超級城A區2樓OS-1號位", "supp_tran": {"tran_name": ["現金提款, 轉賬, 結餘查詢, 更改私人密碼及其他基本服務", "賬單繳費, 信用卡繳費, 慈善捐款", "PLUS", "銀聯", "CIRRUS"]}, "currencies": {"currency": ["港幣", "人民幣"]}, "latitude": "22.4515559", "longitude": "114.16999829999997"}, {"@id": "1576", "region": "香港", "area": "新界", "district": "大埔", "ob_name": "渣打銀行(香港)有限公司", "addr": "新界大埔安慈路2號八號花園地下21號舖", "supp_tran": {"tran_name": ["現金提款, 轉賬, 結餘查詢, 更改私人密碼及其他基本服務", "賬單繳費, 信用卡繳費, 慈善捐款", "PLUS", "銀聯", "CIRRUS"]}, "currencies": {"currency": ["港幣", "人民幣"]}, "latitude": "22.45210493658786", "longitude": "114.16690707206726"}, {"@id": "1561", "region": "香港", "area": "新界", "district": "大埔", "ob_name": "中國建設銀行(亞洲)股份有限公司", "addr": "大埔安慈路1號海寶花園9B號地舖", "supp_tran": {"tran_name": ["現金提款, 轉賬, 結餘查詢, 更改私人密碼及其他基本服務", "跨行轉賬", "賬單繳費, 信用卡繳費, 慈善捐款", "PLUS", "銀聯"]}, "currencies": {"currency": ["港幣", "人民幣"]}, "latitude": "22.452952716144388", "longitude": "114.16662812232971"}, {"@id": "1552", "region": "香港", "area": "新界", "district": "大埔", "ob_name": "中國銀行(香港)有限公司", "addr": "大埔富善邨商場G11號", "supp_tran": {"tran_name": ["現金提款, 轉賬, 結餘查詢, 更改私人密碼及其他基本服務", "強積金", "賬單繳費, 信用卡繳費, 慈善捐款", "PLUS", "JCB", "銀聯", "CIRRUS", "FISC"]}, "currencies": {"currency": ["港幣", "人民幣"]}, "latitude": "22.45402", "longitude": "114.174652"}, {"@id": "1553", "region": "香港", "area": "新界", "district": "大埔", "ob_name": "中國銀行(香港)有限公司", "addr": "大埔安泰路1號大埔廣場地下商場4號", "supp_tran": {"tran_name": ["現金提款, 轉賬, 結餘查詢, 更改私人密碼及其他基本服務", "強積金", "賬單繳費, 信用卡繳費, 慈善捐款", "PLUS", "JCB", "銀聯", "CIRRUS", "FISC"]}, "currencies": {"currency": "港幣"}, "latitude": "22.452952716144388", "longitude": "114.1705709695816"}, {"@id": "1554", "region": "香港", "area": "新界", "district": "大埔", "ob_name": "中國銀行(香港)有限公司", "addr": "大埔安泰路1號大埔廣場地下商場4號", "supp_tran": {"tran_name": ["現金提款, 轉賬, 結餘查詢, 更改私人密碼及其他基本服務", "強積金", "賬單繳費, 信用卡繳費, 慈善捐款", "PLUS", "JCB", "銀聯", "CIRRUS", "FISC"]}, "currencies": {"currency": "港幣"}, "latitude": "22.45299237821892", "longitude": "114.17046368122101"}, {"@id": "7301", "region": "香港", "area": "新界", "district": "大埔", "ob_name": "中國銀行(香港)有限公司", "addr": "新界大埔墟寶鄉街68-70號", "supp_tran": {"tran_name": ["現金提款, 轉賬, 結餘查詢, 更改私人密碼及其他基本服務", "強積金", "賬單繳費, 信用卡繳費, 慈善捐款", "PLUS", "JCB", "銀聯", "CIRRUS", "FISC"]}, "currencies": {"currency": ["港幣", "人民幣"]}, "latitude": "22.44783869236924", "longitude": "114.16628748178482"}, {"@id": "1555", "region": "香港", "area": "新界", "district": "大埔", "ob_name": "中國銀行(香港)有限公司", "addr": "大埔安泰路1號大埔廣場地下商場4號", "supp_tran": {"tran_name": ["現金提款, 轉賬, 結餘查詢, 更改私人密碼及其他基本服務", "強積金", "賬單繳費, 信用卡繳費, 慈善捐款", "PLUS", "JCB", "銀聯", "CIRRUS", "FISC"]}, "currencies": {"currency": ["港幣", "人民幣"]}, "latitude": "22.452853560908387", "longitude": "114.17039394378662"}, {"@id": "1556", "region": "香港", "area": "新界", "district": "大埔", "ob_name": "中國銀行(香港)有限公司", "addr": "大埔富亨邨商場1-2號", "supp_tran": {"tran_name": ["現金提款, 轉賬, 結餘查詢, 更改私人密碼及其他基本服務", "強積金", "賬單繳費, 信用卡繳費, 慈善捐款", "PLUS", "JCB", "銀聯", "CIRRUS", "FISC"]}, "currencies": {"currency": ["港幣", "人民幣"]}, "latitude": "22.458341696551926", "longitude": "114.17150437831879"}, {"@id": "33283", "region": "香港", "area": "新界", "district": "大埔", "ob_name": "中國銀行(香港)有限公司", "addr": "新界大埔汀角路10號大元街市地下411號單位", "supp_tran": {"tran_name": ["現金提款, 轉賬, 結餘查詢, 更改私人密碼及其他基本服務", "強積金", "賬單繳費, 信用卡繳費, 慈善捐款", "PLUS", "JCB", "銀聯", "CIRRUS", "FISC"]}, "currencies": {"currency": ["港幣", "人民幣"]}, "latitude": "22.454029", "longitude": "114.167909"}, {"@id": "1557", "region": "香港", "area": "新界", "district": "大埔", "ob_name": "中國銀行(香港)有限公司", "addr": "新界大埔墟寶鄉街68-70號", "supp_tran": {"tran_name": ["現金提款, 轉賬, 結餘查詢, 更改私人密碼及其他基本服務", "強積金", "賬單繳費, 信用卡繳費, 慈善捐款", "PLUS", "JCB", "銀聯", "CIRRUS", "FISC"]}, "currencies": {"currency": ["港幣", "人民幣"]}, "latitude": "22.44783373442628", "longitude": "114.16632503271103"}, {"@id": "168271", "region": "香港", "area": "新界", "district": "大埔", "ob_name": "中國銀行(香港)有限公司", "addr": "新界大埔大埔超級城D區1樓OS-9號位置", "supp_tran": {"tran_name": ["現金提款, 轉賬, 結餘查詢, 更改私人密碼及其他基本服務", "強積金", "賬單繳費, 信用卡繳費, 慈善捐款", "PLUS", "JCB", "銀聯", "CIRRUS", "FISC"]}, "currencies": {"currency": ["港幣", "人民幣"]}, "latitude": "22.452301126604567", "longitude": "114.17110823096618"}, {"@id": "209279", "region": "香港", "area": "新界", "district": "大埔", "ob_name": "中國銀行(香港)有限公司", "addr": "新界大埔太和路12號太和廣場東翼L1樓自動櫃員機 4號", "supp_tran": {"tran_name": ["現金提款, 轉賬, 結餘查詢, 更改私人密碼及其他基本服務", "強積金", "賬單繳費, 信用卡繳費, 慈善捐款", "PLUS", "JCB", "銀聯", "CIRRUS", "FISC"]}, "currencies": {"currency": ["港幣", "人民幣"]}, "latitude": "22.451318933316695", "longitude": "114.16187406976701"}, {"@id": "222086", "region": "香港", "area": "新界", "district": "大埔", "ob_name": "中國銀行(香港)有限公司", "addr": "新界大埔全安路 11 號雅麗氏何妙齡那打素醫院A座地下", "supp_tran": {"tran_name": ["現金提款, 轉賬, 結餘查詢, 更改私人密碼及其他基本服務", "強積金", "賬單繳費, 信用卡繳費, 慈善捐款", "PLUS", "JCB", "銀聯", "CIRRUS", "FISC"]}, "currencies": {"currency": ["港幣", "人民幣"]}, "latitude": "22.458671", "longitude": "114.17482700000005"}, {"@id": "1558", "region": "香港", "area": "新界", "district": "大埔", "ob_name": "中國銀行(香港)有限公司", "addr": "大埔墟站非付款大堂4號舖", "supp_tran": {"tran_name": ["現金提款, 轉賬, 結餘查詢, 更改私人密碼及其他基本服務", "強積金", "賬單繳費, 信用卡繳費, 慈善捐款", "PLUS", "JCB", "銀聯", "CIRRUS", "FISC"]}, "currencies": {"currency": ["港幣", "人民幣"]}, "latitude": "22.4446918", "longitude": "114.1703949"}, {"@id": "1559", "region": "香港", "area": "新界", "district": "大埔", "ob_name": "中國銀行(香港)有限公司", "addr": "大埔墟站非付款大堂4號舖", "supp_tran": {"tran_name": ["現金提款, 轉賬, 結餘查詢, 更改私人密碼及其他基本服務", "強積金", "賬單繳費, 信用卡繳費, 慈善捐款", "PLUS", "JCB", "銀聯", "CIRRUS", "FISC"]}, "currencies": {"currency": ["港幣", "人民幣"]}, "latitude": "22.44468292582502", "longitude": "114.17038857936859"}, {"@id": "1543", "region": "香港", "area": "新界", "district": "大埔", "ob_name": "東亞銀行有限公司", "addr": "香港教育學院中央大樓平台C-P-12室", "supp_tran": {"tran_name": ["現金提款, 轉賬, 結餘查詢, 更改私人密碼及其他基本服務", "強積金", "跨行轉賬", "賬單繳費, 信用卡繳費, 慈善捐款", "PLUS", "JCB", "銀聯", "CIRRUS", "Diners Club", "FISC", "Discover"]}, "currencies": {"currency": "港幣"}, "latitude": "22.46688827905193", "longitude": "114.19378280639648"}, {"@id": "330284", "region": "香港", "area": "新界", "district": "大埔", "ob_name": "東亞銀行有限公司", "addr": "大埔墟寶鄉街62至66號地下", "supp_tran": {"tran_name": ["現金提款, 轉賬, 結餘查詢, 更改私人密碼及其他基本服務", "強積金", "跨行轉賬", "賬單繳費, 信用卡繳費, 慈善捐款", "PLUS", "JCB", "銀聯", "CIRRUS", "FISC", "Diners Club", "Discover"]}, "currencies": {"currency": ["港幣", "人民幣"]}, "latitude": "22.447723", "longitude": "114.16634799999997"}, {"@id": "330283", "region": "香港", "area": "新界", "district": "大埔", "ob_name": "東亞銀行有限公司", "addr": "大埔墟寶鄉街62至66號地下", "supp_tran": {"tran_name": ["現金提款, 轉賬, 結餘查詢, 更改私人密碼及其他基本服務", "強積金", "跨行轉賬", "賬單繳費, 信用卡繳費, 慈善捐款", "PLUS", "JCB", "銀聯", "CIRRUS", "FISC", "Diners Club", "Discover"]}, "currencies": {"currency": ["港幣", "人民幣"]}, "latitude": "22.447723", "longitude": "114.16634799999997"}, {"@id": "330282", "region": "香港", "area": "新界", "district": "大埔", "ob_name": "東亞銀行有限公司", "addr": "大埔墟寶鄉街62至66號地下", "supp_tran": {"tran_name": ["現金提款, 轉賬, 結餘查詢, 更改私人密碼及其他基本服務", "強積金", "跨行轉賬", "賬單繳費, 信用卡繳費, 慈善捐款", "PLUS", "JCB", "銀聯", "CIRRUS", "FISC", "Diners Club", "Discover"]}, "currencies": {"currency": "港幣"}, "latitude": "22.447723", "longitude": "114.16634799999997"}, {"@id": "330281", "region": "香港", "area": "新界", "district": "大埔", "ob_name": "東亞銀行有限公司", "addr": "大埔墟寶鄉街62至66號地下", "supp_tran": {"tran_name": ["現金提款, 轉賬, 結餘查詢, 更改私人密碼及其他基本服務", "強積金", "跨行轉賬", "賬單繳費, 信用卡繳費, 慈善捐款", "PLUS", "JCB", "銀聯", "CIRRUS", "FISC", "Diners Club", "Discover"]}, "currencies": {"currency": "港幣"}, "latitude": "22.447723", "longitude": "114.16634799999997"}, {"@id": "1545", "region": "香港", "area": "新界", "district": "大埔", "ob_name": "東亞銀行有限公司", "addr": "大埔露屏路10號香港教育學院C2019室", "supp_tran": {"tran_name": ["現金提款, 轉賬, 結餘查詢, 更改私人密碼及其他基本服務", "強積金", "跨行轉賬", "賬單繳費, 信用卡繳費, 慈善捐款", "PLUS", "JCB", "銀聯", "CIRRUS", "FISC", "Diners Club", "Discover"]}, "currencies": {"currency": "港幣"}, "latitude": "22.467279902162268", "longitude": "114.19384717941284"}, {"@id": "1547", "region": "香港", "area": "新界", "district": "大埔", "ob_name": "東亞銀行有限公司", "addr": "大埔廣福邨廣福商場平台近K1號舖", "supp_tran": {"tran_name": ["現金提款, 轉賬, 結餘查詢, 更改私人密碼及其他基本服務", "強積金", "跨行轉賬", "賬單繳費, 信用卡繳費, 慈善捐款", "PLUS", "JCB", "銀聯", "CIRRUS", "Diners Club", "FISC", "Discover"]}, "currencies": {"currency": "港幣"}, "latitude": "22.448545197429457", "longitude": "114.17427778244019"}, {"@id": "1549", "region": "香港", "area": "新界", "district": "大埔", "ob_name": "東亞銀行有限公司", "addr": "大埔太和邨太和商場S229E商舖", "supp_tran": {"tran_name": ["現金提款, 轉賬, 結餘查詢, 更改私人密碼及其他基本服務", "強積金", "跨行轉賬", "賬單繳費, 信用卡繳費, 慈善捐款", "PLUS", "JCB", "銀聯", "CIRRUS", "Diners Club", "FISC", "Discover"]}, "currencies": {"currency": "港幣"}, "latitude": "22.45107371236202", "longitude": "114.1615104675293"}, {"@id": "1569", "region": "香港", "area": "新界", "district": "大埔", "ob_name": "星展銀行(香港)有限公司", "addr": "大埔寶鄉街78-80號地下", "supp_tran": {"tran_name": ["現金提款, 轉賬, 結餘查詢, 更改私人密碼及其他基本服務", "賬單繳費, 信用卡繳費, 慈善捐款", "PLUS", "銀聯", "CIRRUS"]}, "currencies": {"currency": ["港幣", "人民幣"]}, "latitude": "22.448103942059454", "longitude": "114.1664269566536"}, {"@id": "1582", "region": "香港", "area": "新界", "district": "大埔", "ob_name": "招商永隆銀行有限公司", "addr": "大埔安慈路1號地下12號舖", "supp_tran": {"tran_name": ["現金提款, 轉賬, 結餘查詢, 更改私人密碼及其他基本服務", "強積金", "跨行轉賬", "賬單繳費, 信用卡繳費, 慈善捐款", "PLUS", "JCB", "銀聯", "CIRRUS"]}, "currencies": {"currency": ["港幣", "人民幣"]}, "latitude": "22.452899", "longitude": "114.1665679"}, {"@id": "1540", "region": "香港", "area": "新界", "district": "大埔", "ob_name": "交通銀行股份有限公司", "addr": "大埔汀角路29-35號榮暉花園1號舖", "supp_tran": {"tran_name": ["現金提款, 轉賬, 結餘查詢, 更改私人密碼及其他基本服務", "強積金", "跨行轉賬", "賬單繳費, 信用卡繳費, 慈善捐款", "PLUS", "銀聯", "CIRRUS"]}, "currencies": {"currency": ["港幣", "人民幣"]}, "latitude": "22.453170857413948", "longitude": "114.16563838720322"}, {"@id": "1570", "region": "香港", "area": "新界", "district": "大埔", "ob_name": "大新銀行有限公司", "addr": "大埔安泰路1號大埔廣場地下53號及54號舖", "supp_tran": {"tran_name": ["現金提款, 轉賬, 結餘查詢, 更改私人密碼及其他基本服務", "強積金", "跨行轉賬", "賬單繳費, 信用卡繳費, 慈善捐款", "PLUS", "銀聯", "CIRRUS"]}, "currencies": {"currency": "港幣"}, "latitude": "22.452085105425084", "longitude": "114.17030811309814"}, {"@id": "1571", "region": "香港", "area": "新界", "district": "大埔", "ob_name": "富邦銀行(香港)有限公司", "addr": "大埔安慈路翠屏花園地下28舖", "supp_tran": {"tran_name": ["現金提款, 轉賬, 結餘查詢, 更改私人密碼及其他基本服務", "強積金", "跨行轉賬", "賬單繳費, 信用卡繳費, 慈善捐款", "PLUS", "銀聯", "CIRRUS"]}, "currencies": {"currency": ["港幣", "人民幣"]}, "latitude": "22.4529898993396", "longitude": "114.16862905025482"}]}}}