{"xml_msg": {"@query": "region=2,area=1,district=4,transaction=2", "supp_cb": null, "atms": {"atm": [{"@id": "472", "region": "香港", "area": "香港", "district": "中環", "ob_name": "中國建設銀行(亞洲)股份有限公司", "addr": "中環德輔道中6號", "supp_tran": {"tran_name": ["現金提款, 轉賬, 結餘查詢, 更改私人密碼及其他基本服務", "跨行轉賬", "賬單繳費, 信用卡繳費, 慈善捐款", "PLUS", "銀聯"]}, "currencies": {"currency": ["港幣", "人民幣"]}, "latitude": "22.280687829174962", "longitude": "114.15869951248169"}, {"@id": "473", "region": "香港", "area": "香港", "district": "中環", "ob_name": "中國建設銀行(亞洲)股份有限公司", "addr": "中環德輔道中99號地下", "supp_tran": {"tran_name": ["現金提款, 轉賬, 結餘查詢, 更改私人密碼及其他基本服務", "跨行轉賬", "賬單繳費, 信用卡繳費, 慈善捐款", "PLUS", "銀聯"]}, "currencies": {"currency": ["港幣", "人民幣"]}, "latitude": "22.284626626381094", "longitude": "114.15576785802841"}, {"@id": "134749", "region": "香港", "area": "香港", "district": "中環", "ob_name": "中國建設銀行(亞洲)股份有限公司", "addr": "香港中環干諾道中3號中國建設銀行大廈地下", "supp_tran": {"tran_name": ["現金提款, 轉賬, 結餘查詢, 更改私人密碼及其他基本服務", "跨行轉賬", "賬單繳費, 信用卡繳費, 慈善捐款", "銀聯"]}, "currencies": {"currency": ["港幣", "人民幣"]}, "latitude": "22.2816268", "longitude": "114.16162150000002"}, {"@id": "134763", "region": "香港", "area": "香港", "district": "中環", "ob_name": "中國建設銀行(亞洲)股份有限公司", "addr": "香港中環干諾道中3號中國建設銀行大廈3樓", "supp_tran": {"tran_name": ["現金提款, 轉賬, 結餘查詢, 更改私人密碼及其他基本服務", "跨行轉賬", "賬單繳費, 信用卡繳費, 慈善捐款", "PLUS", "銀聯"]}, "currencies": {"currency": ["港幣", "人民幣"]}, "latitude": "22.2816268", "longitude": "114.16162150000002"}, {"@id": "440", "region": "香港", "area": "香港", "district": "中環", "ob_name": "東亞銀行有限公司", "addr": "中環德輔道中10號L/F堂", "supp_tran": {"tran_name": ["現金提款, 轉賬, 結餘查詢, 更改私人密碼及其他基本服務", "強積金", "跨行轉賬", "賬單繳費, 信用卡繳費, 慈善捐款", "PLUS", "JCB", "銀聯", "CIRRUS", "Diners Club", "FISC", "Discover"]}, "currencies": {"currency": "港幣"}, "latitude": "22.28099062659591", "longitude": "114.15835618972778"}, {"@id": "441", "region": "香港", "area": "香港", "district": "中環", "ob_name": "東亞銀行有限公司", "addr": "中環德輔道中10號地下", "supp_tran": {"tran_name": ["現金提款, 轉賬, 結餘查詢, 更改私人密碼及其他基本服務", "強積金", "跨行轉賬", "賬單繳費, 信用卡繳費, 慈善捐款", "PLUS", "JCB", "銀聯", "CIRRUS", "FISC", "Diners Club", "Discover"]}, "currencies": {"currency": ["港幣", "人民幣"]}, "latitude": "22.280945951607823", "longitude": "114.15837228298187"}, {"@id": "442", "region": "香港", "area": "香港", "district": "中環", "ob_name": "東亞銀行有限公司", "addr": "中環德輔道中10號地下", "supp_tran": {"tran_name": ["現金提款, 轉賬, 結餘查詢, 更改私人密碼及其他基本服務", "強積金", "跨行轉賬", "賬單繳費, 信用卡繳費, 慈善捐款", "PLUS", "JCB", "銀聯", "CIRRUS", "FISC", "Diners Club", "Discover"]}, "currencies": {"currency": "港幣"}, "latitude": "22.28103530156972", "longitude": "114.15838569402695"}, {"@id": "168280", "region": "香港", "area": "香港", "district": "中環", "ob_name": "東亞銀行有限公司", "addr": "中環德輔道中10號", "supp_tran": {"tran_name": ["現金提款, 轉賬, 結餘查詢, 更改私人密碼及其他基本服務", "強積金", "跨行轉賬", "賬單繳費, 信用卡繳費, 慈善捐款", "PLUS", "JCB", "銀聯", "CIRRUS", "FISC", "Diners Club", "Discover"]}, "currencies": {"currency": "港幣"}, "latitude": "22.28102461524925", "longitude": "114.15841384788518"}, {"@id": "137817", "region": "香港", "area": "香港", "district": "中環", "ob_name": "東亞銀行有限公司", "addr": "中環康樂廣場2號1樓", "supp_tran": {"tran_name": ["現金提款, 轉賬, 結餘查詢, 更改私人密碼及其他基本服務", "強積金", "跨行轉賬", "賬單繳費, 信用卡繳費, 慈善捐款", "PLUS", "JCB", "銀聯", "CIRRUS", "Diners Club", "FISC", "Discover"]}, "currencies": {"currency": "港幣"}, "latitude": "22.283577", "longitude": "114.15955800000006"}, {"@id": "152976", "region": "香港", "area": "香港", "district": "中環", "ob_name": "東亞銀行有限公司", "addr": "香港港鐵站L3 東涌綫大堂自動櫃員機 ATM Bay 號", "supp_tran": {"tran_name": ["現金提款, 轉賬, 結餘查詢, 更改私人密碼及其他基本服務", "強積金", "跨行轉賬", "賬單繳費, 信用卡繳費, 慈善捐款", "PLUS", "JCB", "銀聯", "CIRRUS", "Diners Club", "FISC", "Discover"]}, "currencies": {"currency": ["港幣", "人民幣"]}, "latitude": "22.284681", "longitude": "114.15817700000002"}, {"@id": "152974", "region": "香港", "area": "香港", "district": "中環", "ob_name": "東亞銀行有限公司", "addr": "香港港鐵站L3 東涌綫大堂自動櫃員機 ATM Bay 號", "supp_tran": {"tran_name": ["現金提款, 轉賬, 結餘查詢, 更改私人密碼及其他基本服務", "強積金", "跨行轉賬", "賬單繳費, 信用卡繳費, 慈善捐款", "PLUS", "JCB", "銀聯", "CIRRUS", "Diners Club", "FISC", "Discover"]}, "currencies": {"currency": "港幣"}, "latitude": "22.284681", "longitude": "114.15817700000002"}, {"@id": "174512", "region": "香港", "area": "香港", "district": "中環", "ob_name": "東亞銀行有限公司", "addr": "中環港景街1號國際金融中心商場一樓1105A號舖", "supp_tran": {"tran_name": ["現金提款, 轉賬, 結餘查詢, 更改私人密碼及其他基本服務", "強積金", "跨行轉賬", "賬單繳費, 信用卡繳費, 慈善捐款", "PLUS", "JCB", "銀聯", "CIRRUS", "FISC", "Diners Club", "Discover"]}, "currencies": {"currency": "港幣"}, "latitude": "22.2849128", "longitude": "114.15684590000001"}, {"@id": "446", "region": "香港", "area": "香港", "district": "中環", "ob_name": "東亞銀行有限公司", "addr": "中環娛樂行2樓2E及F號舖對出", "supp_tran": {"tran_name": ["現金提款, 轉賬, 結餘查詢, 更改私人密碼及其他基本服務", "強積金", "跨行轉賬", "賬單繳費, 信用卡繳費, 慈善捐款", "PLUS", "JCB", "銀聯", "CIRRUS", "Diners Club", "FISC", "Discover"]}, "currencies": {"currency": "港幣"}, "latitude": "22.281496942130026", "longitude": "114.15640354156494"}, {"@id": "474", "region": "香港", "area": "香港", "district": "中環", "ob_name": "中信銀行(國際)有限公司", "addr": "中環德輔道中61-65號華人銀行大廈", "supp_tran": {"tran_name": ["現金提款, 轉賬, 結餘查詢, 更改私人密碼及其他基本服務", "跨行轉賬", "賬單繳費, 信用卡繳費, 慈善捐款", "銀聯"]}, "currencies": {"currency": ["港幣", "人民幣"]}, "latitude": "22.28360657045472", "longitude": "114.15668785572052"}, {"@id": "475", "region": "香港", "area": "香港", "district": "中環", "ob_name": "中信銀行(國際)有限公司", "addr": "中環德輔道中61-65號華人銀行大廈", "supp_tran": {"tran_name": ["現金提款, 轉賬, 結餘查詢, 更改私人密碼及其他基本服務", "跨行轉賬", "賬單繳費, 信用卡繳費, 慈善捐款", "銀聯"]}, "currencies": {"currency": ["港幣", "人民幣"]}, "latitude": "22.283586715277686", "longitude": "114.15669858455658"}, {"@id": "66152", "region": "香港", "area": "香港", "district": "中環", "ob_name": "中信銀行(國際)有限公司", "addr": "中環添美道1號中信大廈2樓207號舖", "supp_tran": {"tran_name": ["現金提款, 轉賬, 結餘查詢, 更改私人密碼及其他基本服務", "跨行轉賬", "賬單繳費, 信用卡繳費, 慈善捐款", "銀聯"]}, "currencies": {"currency": ["港幣", "人民幣"]}, "latitude": "22.28066797358348", "longitude": "114.16708946228027"}, {"@id": "533", "region": "香港", "area": "香港", "district": "中環", "ob_name": "招商永隆銀行有限公司", "addr": "中環德輔道中45號", "supp_tran": {"tran_name": ["現金提款, 轉賬, 結餘查詢, 更改私人密碼及其他基本服務", "強積金", "跨行轉賬", "賬單繳費, 信用卡繳費, 慈善捐款", "PLUS", "JCB", "銀聯", "CIRRUS"]}, "currencies": {"currency": ["港幣", "人民幣"]}, "latitude": "22.28327399586755", "longitude": "114.15693998336792"}, {"@id": "534", "region": "香港", "area": "香港", "district": "中環", "ob_name": "招商永隆銀行有限公司", "addr": "中環德輔道中45號", "supp_tran": {"tran_name": ["現金提款, 轉賬, 結餘查詢, 更改私人密碼及其他基本服務", "強積金", "跨行轉賬", "賬單繳費, 信用卡繳費, 慈善捐款", "PLUS", "JCB", "銀聯", "CIRRUS"]}, "currencies": {"currency": ["港幣", "人民幣"]}, "latitude": "22.283271513964667", "longitude": "114.15695071220398"}, {"@id": "536", "region": "香港", "area": "香港", "district": "中環", "ob_name": "招商永隆銀行有限公司", "addr": "中環德輔道中45號", "supp_tran": {"tran_name": ["現金提款, 轉賬, 結餘查詢, 更改私人密碼及其他基本服務", "強積金", "跨行轉賬", "賬單繳費, 信用卡繳費, 慈善捐款", "PLUS", "JCB", "銀聯", "CIRRUS"]}, "currencies": {"currency": ["港幣", "人民幣"]}, "latitude": "22.283276477770382", "longitude": "114.15695071220398"}, {"@id": "218856", "region": "香港", "area": "香港", "district": "中環", "ob_name": "招商永隆銀行有限公司", "addr": "香港中環交易廣場二期32樓3201-3204", "supp_tran": {"tran_name": ["現金提款, 轉賬, 結餘查詢, 更改私人密碼及其他基本服務", "強積金", "跨行轉賬", "賬單繳費, 信用卡繳費, 慈善捐款", "PLUS", "JCB", "銀聯", "CIRRUS"]}, "currencies": {"currency": ["港幣", "人民幣"]}, "latitude": "22.283834398366682", "longitude": "114.15835445767209"}, {"@id": "537", "region": "香港", "area": "香港", "district": "中環", "ob_name": "招商永隆銀行有限公司", "addr": "上環德輔道中189-195號, 李寶椿大廈", "supp_tran": {"tran_name": ["現金提款, 轉賬, 結餘查詢, 更改私人密碼及其他基本服務", "強積金", "跨行轉賬", "賬單繳費, 信用卡繳費, 慈善捐款", "PLUS", "JCB", "銀聯", "CIRRUS"]}, "currencies": {"currency": ["港幣", "人民幣"]}, "latitude": "22.286213", "longitude": "114.15396800000008"}, {"@id": "241805", "region": "香港", "area": "香港", "district": "中環", "ob_name": "上海商業銀行", "addr": "中環皇后大道中12號上海商業銀行大廈地下", "supp_tran": {"tran_name": ["現金提款, 轉賬, 結餘查詢, 更改私人密碼及其他基本服務", "強積金", "跨行轉賬", "賬單繳費, 信用卡繳費, 慈善捐款", "PLUS", "JCB", "銀聯", "CIRRUS", "FISC"]}, "currencies": {"currency": ["港幣", "人民幣"]}, "latitude": "22.280366", "longitude": "114.157301"}, {"@id": "241806", "region": "香港", "area": "香港", "district": "中環", "ob_name": "上海商業銀行", "addr": "中環皇后大道中12號上海商業銀行大廈地下", "supp_tran": {"tran_name": ["現金提款, 轉賬, 結餘查詢, 更改私人密碼及其他基本服務", "強積金", "跨行轉賬", "賬單繳費, 信用卡繳費, 慈善捐款", "PLUS", "JCB", "銀聯", "CIRRUS", "FISC"]}, "currencies": {"currency": ["港幣", "人民幣"]}, "latitude": "22.280366", "longitude": "114.157301"}, {"@id": "514", "region": "香港", "area": "香港", "district": "中環", "ob_name": "上海商業銀行", "addr": "中環皇后大道中12號上海商業銀行大廈地下", "supp_tran": {"tran_name": ["現金提款, 轉賬, 結餘查詢, 更改私人密碼及其他基本服務", "強積金", "跨行轉賬", "賬單繳費, 信用卡繳費, 慈善捐款", "PLUS", "JCB", "銀聯", "CIRRUS", "FISC"]}, "currencies": {"currency": ["港幣", "人民幣"]}, "latitude": "22.280366", "longitude": "114.157301"}, {"@id": "241807", "region": "香港", "area": "香港", "district": "中環", "ob_name": "上海商業銀行", "addr": "中環皇后大道中12號上海商業銀行大廈大堂", "supp_tran": {"tran_name": ["現金提款, 轉賬, 結餘查詢, 更改私人密碼及其他基本服務", "強積金", "跨行轉賬", "賬單繳費, 信用卡繳費, 慈善捐款", "PLUS", "JCB", "銀聯", "CIRRUS", "FISC"]}, "currencies": {"currency": ["港幣", "人民幣"]}, "latitude": "22.280366", "longitude": "114.157301"}, {"@id": "228543", "region": "香港", "area": "香港", "district": "中環", "ob_name": "上海商業銀行", "addr": "中環干諾道中48號南源大廈地下及一樓", "supp_tran": {"tran_name": ["現金提款, 轉賬, 結餘查詢, 更改私人密碼及其他基本服務", "強積金", "跨行轉賬", "賬單繳費, 信用卡繳費, 慈善捐款", "PLUS", "JCB", "銀聯", "CIRRUS", "FISC"]}, "currencies": {"currency": ["港幣", "人民幣"]}, "latitude": "22.285210", "longitude": "114.156041"}, {"@id": "437", "region": "香港", "area": "香港", "district": "中環", "ob_name": "交通銀行股份有限公司", "addr": "中環畢打街20號", "supp_tran": {"tran_name": ["現金提款, 轉賬, 結餘查詢, 更改私人密碼及其他基本服務", "強積金", "跨行轉賬", "賬單繳費, 信用卡繳費, 慈善捐款", "PLUS", "銀聯", "CIRRUS"]}, "currencies": {"currency": ["港幣", "人民幣"]}, "latitude": "22.28189901492464", "longitude": "114.15753543376923"}, {"@id": "438", "region": "香港", "area": "香港", "district": "中環", "ob_name": "交通銀行股份有限公司", "addr": "中環畢打街20號", "supp_tran": {"tran_name": ["現金提款, 轉賬, 結餘查詢, 更改私人密碼及其他基本服務", "強積金", "跨行轉賬", "賬單繳費, 信用卡繳費, 慈善捐款", "PLUS", "銀聯", "CIRRUS"]}, "currencies": {"currency": ["港幣", "人民幣"]}, "latitude": "22.281928798048614", "longitude": "114.15751129388809"}, {"@id": "439", "region": "香港", "area": "香港", "district": "中環", "ob_name": "交通銀行股份有限公司", "addr": "中環德輔道中125號A", "supp_tran": {"tran_name": ["現金提款, 轉賬, 結餘查詢, 更改私人密碼及其他基本服務", "強積金", "跨行轉賬", "賬單繳費, 信用卡繳費, 慈善捐款", "PLUS", "銀聯", "CIRRUS"]}, "currencies": {"currency": ["港幣", "人民幣"]}, "latitude": "22.284758165897983", "longitude": "114.15574640035629"}, {"@id": "183826", "region": "香港", "area": "香港", "district": "中環", "ob_name": "交通銀行股份有限公司", "addr": "港鐵香港站", "supp_tran": {"tran_name": ["現金提款, 轉賬, 結餘查詢, 更改私人密碼及其他基本服務", "強積金", "跨行轉賬", "賬單繳費, 信用卡繳費, 慈善捐款", "PLUS", "JCB", "銀聯", "CIRRUS"]}, "currencies": {"currency": ["港幣", "人民幣"]}, "latitude": "22.284681", "longitude": "114.15817700000002"}, {"@id": "511", "region": "香港", "area": "香港", "district": "中環", "ob_name": "大眾銀行(香港)有限公司", "addr": "香港德輔道中120號大眾銀行中心地下", "supp_tran": {"tran_name": ["現金提款, 轉賬, 結餘查詢, 更改私人密碼及其他基本服務", "強積金", "跨行轉賬", "賬單繳費, 信用卡繳費, 慈善捐款", "JCB", "銀聯"]}, "currencies": {"currency": ["港幣", "人民幣"]}, "latitude": "22.285145338097404", "longitude": "114.15495783090591"}, {"@id": "512", "region": "香港", "area": "香港", "district": "中環", "ob_name": "大眾銀行(香港)有限公司", "addr": "香港德輔道中120號大眾銀行中心地下", "supp_tran": {"tran_name": ["現金提款, 轉賬, 結餘查詢, 更改私人密碼及其他基本服務", "強積金", "跨行轉賬", "賬單繳費, 信用卡繳費, 慈善捐款", "JCB", "銀聯"]}, "currencies": {"currency": ["港幣", "人民幣"]}, "latitude": "22.28514781996702", "longitude": "114.15496051311493"}, {"@id": "513", "region": "香港", "area": "香港", "district": "中環", "ob_name": "大眾銀行(香港)有限公司", "addr": "香港中環德輔道中71號永安集團大廈地下A 舖", "supp_tran": {"tran_name": ["現金提款, 轉賬, 結餘查詢, 更改私人密碼及其他基本服務", "強積金", "跨行轉賬", "賬單繳費, 信用卡繳費, 慈善捐款", "JCB", "銀聯"]}, "currencies": {"currency": ["港幣", "人民幣"]}, "latitude": "22.28378030313346", "longitude": "114.15655374526978"}, {"@id": "92193", "region": "香港", "area": "香港", "district": "中環", "ob_name": "華僑永亨銀行有限公司", "addr": "皇后大道中161號", "supp_tran": {"tran_name": ["現金提款, 轉賬, 結餘查詢, 更改私人密碼及其他基本服務", "強積金", "跨行轉賬", "賬單繳費, 信用卡繳費, 慈善捐款", "JCB", "銀聯"]}, "currencies": {"currency": "港幣"}, "latitude": "22.2847402", "longitude": "114.1535013"}, {"@id": "95191", "region": "香港", "area": "香港", "district": "中環", "ob_name": "華僑永亨銀行有限公司", "addr": "中環皇后大道中5號衡怡大廈地下", "supp_tran": {"tran_name": ["現金提款, 轉賬, 結餘查詢, 更改私人密碼及其他基本服務", "強積金", "跨行轉賬", "賬單繳費, 信用卡繳費, 慈善捐款", "JCB", "銀聯"]}, "currencies": {"currency": "港幣"}, "latitude": "22.28029071680942", "longitude": "114.15881216526031"}, {"@id": "491", "region": "香港", "area": "香港", "district": "中環", "ob_name": "集友銀行有限公司", "addr": "香港中環德輔道中78號", "supp_tran": {"tran_name": ["現金提款, 轉賬, 結餘查詢, 更改私人密碼及其他基本服務", "強積金", "跨行轉賬", "賬單繳費, 信用卡繳費, 慈善捐款", "PLUS", "JCB", "銀聯", "CIRRUS"]}, "currencies": {"currency": ["港幣", "人民幣"]}, "latitude": "22.283966445049682", "longitude": "114.15599316358566"}, {"@id": "498", "region": "香港", "area": "香港", "district": "中環", "ob_name": "大新銀行有限公司", "addr": "中環德輔道中19號環球大廈", "supp_tran": {"tran_name": ["現金提款, 轉賬, 結餘查詢, 更改私人密碼及其他基本服務", "強積金", "跨行轉賬", "賬單繳費, 信用卡繳費, 慈善捐款", "PLUS", "銀聯", "CIRRUS"]}, "currencies": {"currency": "港幣"}, "latitude": "22.28229115888223", "longitude": "114.15768563747406"}, {"@id": "499", "region": "香港", "area": "香港", "district": "中環", "ob_name": "大新銀行有限公司", "addr": "中環德輔道中19號環球大廈", "supp_tran": {"tran_name": ["現金提款, 轉賬, 結餘查詢, 更改私人密碼及其他基本服務", "強積金", "跨行轉賬", "賬單繳費, 信用卡繳費, 慈善捐款", "PLUS", "銀聯", "CIRRUS"]}, "currencies": {"currency": "港幣"}, "latitude": "22.28229", "longitude": "114.1576322"}, {"@id": "476", "region": "香港", "area": "香港", "district": "中環", "ob_name": "創興銀行有限公司", "addr": "中環德輔道中24號地下大堂", "supp_tran": {"tran_name": ["現金提款, 轉賬, 結餘查詢, 更改私人密碼及其他基本服務", "強積金", "跨行轉賬", "賬單繳費, 信用卡繳費, 慈善捐款", "銀聯"]}, "currencies": {"currency": "港幣"}, "latitude": "22.282596434746136", "longitude": "114.15715724229813"}, {"@id": "477", "region": "香港", "area": "香港", "district": "中環", "ob_name": "創興銀行有限公司", "addr": "中環德輔道中24號地下大堂", "supp_tran": {"tran_name": ["現金提款, 轉賬, 結餘查詢, 更改私人密碼及其他基本服務", "強積金", "跨行轉賬", "賬單繳費, 信用卡繳費, 慈善捐款", "銀聯"]}, "currencies": {"currency": "港幣"}, "latitude": "22.282579061340872", "longitude": "114.15716797113419"}, {"@id": "199833", "region": "香港", "area": "香港", "district": "中環", "ob_name": "創興銀行有限公司", "addr": "中環德輔道中24號3樓", "supp_tran": {"tran_name": ["現金提款, 轉賬, 結餘查詢, 更改私人密碼及其他基本服務", "強積金", "跨行轉賬", "賬單繳費, 信用卡繳費, 慈善捐款", "銀聯"]}, "currencies": {"currency": "港幣"}, "latitude": "22.282521", "longitude": "114.15700700000002"}, {"@id": "502", "region": "香港", "area": "香港", "district": "中環", "ob_name": "中國工商銀行(亞洲)有限公司", "addr": "香港中環皇后大道中122-126號地庫至一樓", "supp_tran": {"tran_name": ["現金提款, 轉賬, 結餘查詢, 更改私人密碼及其他基本服務", "跨行轉賬", "賬單繳費, 信用卡繳費, 慈善捐款", "JCB", "銀聯", "CIRRUS"]}, "currencies": {"currency": ["港幣", "人民幣"]}, "latitude": "22.2837971", "longitude": "114.15449050000007"}, {"@id": "305710", "region": "香港", "area": "香港", "district": "中環", "ob_name": "中國工商銀行(亞洲)有限公司", "addr": "香港中環皇后大道中122-126號地庫至一樓", "supp_tran": {"tran_name": ["現金提款, 轉賬, 結餘查詢, 更改私人密碼及其他基本服務", "跨行轉賬", "賬單繳費, 信用卡繳費, 慈善捐款", "JCB", "銀聯", "CIRRUS"]}, "currencies": {"currency": ["港幣", "人民幣"]}, "latitude": "22.2837971", "longitude": "114.15449050000007"}, {"@id": "347815", "region": "香港", "area": "香港", "district": "中環", "ob_name": "中國工商銀行(亞洲)有限公司", "addr": "香港皇后大道中9號1字樓", "supp_tran": {"tran_name": ["現金提款, 轉賬, 結餘查詢, 更改私人密碼及其他基本服務", "跨行轉賬", "賬單繳費, 信用卡繳費, 慈善捐款", "JCB", "銀聯", "CIRRUS"]}, "currencies": {"currency": ["港幣", "人民幣"]}, "latitude": "22.280383746277312", "longitude": "114.15841596197129"}, {"@id": "347814", "region": "香港", "area": "香港", "district": "中環", "ob_name": "中國工商銀行(亞洲)有限公司", "addr": "香港皇后大道中9號1字樓", "supp_tran": {"tran_name": ["現金提款, 轉賬, 結餘查詢, 更改私人密碼及其他基本服務", "跨行轉賬", "賬單繳費, 信用卡繳費, 慈善捐款", "JCB", "銀聯", "CIRRUS"]}, "currencies": {"currency": ["港幣", "人民幣"]}, "latitude": "22.280391192139593", "longitude": "114.1584186441803"}, {"@id": "503", "region": "香港", "area": "香港", "district": "中環", "ob_name": "中國工商銀行(亞洲)有限公司", "addr": "香港中環皇后大道中9號1字樓", "supp_tran": {"tran_name": ["現金提款, 轉賬, 結餘查詢, 更改私人密碼及其他基本服務", "跨行轉賬", "賬單繳費, 信用卡繳費, 慈善捐款", "JCB", "銀聯", "CIRRUS"]}, "currencies": {"currency": ["港幣", "人民幣"]}, "latitude": "22.28030312658791", "longitude": "114.1583400964737"}, {"@id": "95201", "region": "香港", "area": "香港", "district": "中環", "ob_name": "中國工商銀行(亞洲)有限公司", "addr": "中環天星碼頭(7號)上層1B 自動櫃員機", "supp_tran": {"tran_name": ["現金提款, 轉賬, 結餘查詢, 更改私人密碼及其他基本服務", "跨行轉賬", "賬單繳費, 信用卡繳費, 慈善捐款", "JCB", "銀聯", "CIRRUS"]}, "currencies": {"currency": ["港幣", "人民幣"]}, "latitude": "22.287193", "longitude": "114.161241"}, {"@id": "128619", "region": "香港", "area": "香港", "district": "中環", "ob_name": "中國工商銀行(亞洲)有限公司", "addr": "香港中環花園道3號中國工商銀行大廈29樓", "supp_tran": {"tran_name": ["現金提款, 轉賬, 結餘查詢, 更改私人密碼及其他基本服務", "跨行轉賬", "賬單繳費, 信用卡繳費, 慈善捐款", "JCB", "銀聯", "CIRRUS"]}, "currencies": {"currency": ["港幣", "人民幣"]}, "latitude": "22.2784689493795", "longitude": "114.16042685508728"}, {"@id": "171382", "region": "香港", "area": "香港", "district": "中環", "ob_name": "中國工商銀行(亞洲)有限公司", "addr": "香港中環花園道3號中國工商銀行大廈大堂", "supp_tran": {"tran_name": ["現金提款, 轉賬, 結餘查詢, 更改私人密碼及其他基本服務", "跨行轉賬", "賬單繳費, 信用卡繳費, 慈善捐款", "JCB", "銀聯", "CIRRUS"]}, "currencies": {"currency": ["港幣", "人民幣"]}, "latitude": "22.27885156354541", "longitude": "114.16068657423966"}, {"@id": "215652", "region": "香港", "area": "香港", "district": "中環", "ob_name": "中國工商銀行(亞洲)有限公司", "addr": "香港中環民光街中環5號渡輪碼頭", "supp_tran": {"tran_name": ["現金提款, 轉賬, 結餘查詢, 更改私人密碼及其他基本服務", "跨行轉賬", "賬單繳費, 信用卡繳費, 慈善捐款", "JCB", "銀聯", "CIRRUS"]}, "currencies": {"currency": ["港幣", "人民幣"]}, "latitude": "22.28722951624317", "longitude": "114.15925975396726"}, {"@id": "22673", "region": "香港", "area": "香港", "district": "中環", "ob_name": "中國工商銀行(亞洲)有限公司", "addr": "港鐵中環站J出口", "supp_tran": {"tran_name": ["現金提款, 轉賬, 結餘查詢, 更改私人密碼及其他基本服務", "跨行轉賬", "賬單繳費, 信用卡繳費, 慈善捐款", "JCB", "銀聯", "CIRRUS"]}, "currencies": {"currency": ["港幣", "人民幣"]}, "latitude": "22.281164362525", "longitude": "114.1605019569397"}, {"@id": "22674", "region": "香港", "area": "香港", "district": "中環", "ob_name": "中國工商銀行(亞洲)有限公司", "addr": "港鐵中環站J出口", "supp_tran": {"tran_name": ["現金提款, 轉賬, 結餘查詢, 更改私人密碼及其他基本服務", "跨行轉賬", "賬單繳費, 信用卡繳費, 慈善捐款", "JCB", "銀聯", "CIRRUS"]}, "currencies": {"currency": ["港幣", "人民幣"]}, "latitude": "22.28111720565131", "longitude": "114.16054219007492"}, {"@id": "500", "region": "香港", "area": "香港", "district": "中環", "ob_name": "富邦銀行(香港)有限公司", "addr": "中環德輔道中38號富邦銀行(香港)大廈", "supp_tran": {"tran_name": ["現金提款, 轉賬, 結餘查詢, 更改私人密碼及其他基本服務", "強積金", "跨行轉賬", "賬單繳費, 信用卡繳費, 慈善捐款", "PLUS", "銀聯", "CIRRUS"]}, "currencies": {"currency": ["港幣", "人民幣"]}, "latitude": "22.28308537112325", "longitude": "114.15674418210983"}, {"@id": "501", "region": "香港", "area": "香港", "district": "中環", "ob_name": "富邦銀行(香港)有限公司", "addr": "中環德輔道中38號富邦銀行(香港)大廈", "supp_tran": {"tran_name": ["現金提款, 轉賬, 結餘查詢, 更改私人密碼及其他基本服務", "強積金", "跨行轉賬", "賬單繳費, 信用卡繳費, 慈善捐款", "PLUS", "銀聯", "CIRRUS"]}, "currencies": {"currency": ["港幣", "人民幣"]}, "latitude": "22.283067997778748", "longitude": "114.1567200422287"}]}}}