{"xml_msg": {"@query": "region=2,area=3,district=65,transaction=575", "supp_cb": null, "atms": {"atm": [{"@id": "7313", "region": "香港", "area": "新界", "district": "青衣", "ob_name": "中國銀行(香港)有限公司", "addr": "新界青衣藍澄灣商場一樓鄰近18號商舖空地", "supp_tran": {"tran_name": ["現金提款, 轉賬, 結餘查詢, 更改私人密碼及其他基本服務", "強積金", "賬單繳費, 信用卡繳費, 慈善捐款", "PLUS", "JCB", "銀聯", "CIRRUS", "FISC"]}, "currencies": {"currency": ["港幣", "人民幣"]}, "latitude": "22.341998", "longitude": "114.110115"}, {"@id": "25300", "region": "香港", "area": "新界", "district": "青衣", "ob_name": "中國銀行(香港)有限公司", "addr": "新界青衣翠怡花園商場2期地下的公眾地方OS-1", "supp_tran": {"tran_name": ["現金提款, 轉賬, 結餘查詢, 更改私人密碼及其他基本服務", "強積金", "賬單繳費, 信用卡繳費, 慈善捐款", "PLUS", "JCB", "銀聯", "CIRRUS", "FISC"]}, "currencies": {"currency": ["港幣", "人民幣"]}, "latitude": "22.352923638271147", "longitude": "114.10863876342773"}, {"@id": "95184", "region": "香港", "area": "新界", "district": "青衣", "ob_name": "中國銀行(香港)有限公司", "addr": "新界青衣島青衣城108G號", "supp_tran": {"tran_name": ["現金提款, 轉賬, 結餘查詢, 更改私人密碼及其他基本服務", "強積金", "賬單繳費, 信用卡繳費, 慈善捐款", "PLUS", "JCB", "銀聯", "CIRRUS", "FISC"]}, "currencies": {"currency": "港幣"}, "latitude": "22.357846", "longitude": "114.106024"}, {"@id": "146885", "region": "香港", "area": "新界", "district": "青衣", "ob_name": "中國銀行(香港)有限公司", "addr": "新界青衣島長康邨第二商場201-202號", "supp_tran": {"tran_name": ["現金提款, 轉賬, 結餘查詢, 更改私人密碼及其他基本服務", "強積金", "賬單繳費, 信用卡繳費, 慈善捐款", "PLUS", "JCB", "銀聯", "CIRRUS", "FISC"]}, "currencies": {"currency": ["港幣", "人民幣"]}, "latitude": "22.350073", "longitude": "114.10052599999994"}, {"@id": "146884", "region": "香港", "area": "新界", "district": "青衣", "ob_name": "中國銀行(香港)有限公司", "addr": "新界青衣島長康邨第二商場201-202號", "supp_tran": {"tran_name": ["現金提款, 轉賬, 結餘查詢, 更改私人密碼及其他基本服務", "強積金", "賬單繳費, 信用卡繳費, 慈善捐款", "PLUS", "JCB", "銀聯", "CIRRUS", "FISC"]}, "currencies": {"currency": "港幣"}, "latitude": "22.350073", "longitude": "114.10052599999994"}, {"@id": "193407", "region": "香港", "area": "新界", "district": "青衣", "ob_name": "中國銀行(香港)有限公司", "addr": "靑衣航運路 36號亞洲物流中心-順豐大廈 9樓", "supp_tran": {"tran_name": ["現金提款, 轉賬, 結餘查詢, 更改私人密碼及其他基本服務", "強積金", "賬單繳費, 信用卡繳費, 慈善捐款", "PLUS", "JCB", "銀聯", "CIRRUS", "FISC"]}, "currencies": {"currency": ["港幣", "人民幣"]}, "latitude": "22.3349013", "longitude": "114.11140019999993"}, {"@id": "1664", "region": "香港", "area": "新界", "district": "青衣", "ob_name": "中國銀行(香港)有限公司", "addr": "新界青衣青衣城一樓115號舖", "supp_tran": {"tran_name": ["現金提款, 轉賬, 結餘查詢, 更改私人密碼及其他基本服務", "強積金", "賬單繳費, 信用卡繳費, 慈善捐款", "PLUS", "JCB", "銀聯", "CIRRUS", "FISC"]}, "currencies": {"currency": ["港幣", "人民幣"]}, "latitude": "22.35909043416505", "longitude": "114.10796284675598"}, {"@id": "1665", "region": "香港", "area": "新界", "district": "青衣", "ob_name": "中國銀行(香港)有限公司", "addr": "青衣長發邨商場3樓316號舖旁", "supp_tran": {"tran_name": ["現金提款, 轉賬, 結餘查詢, 更改私人密碼及其他基本服務", "強積金", "賬單繳費, 信用卡繳費, 慈善捐款", "PLUS", "JCB", "銀聯", "CIRRUS", "FISC"]}, "currencies": {"currency": ["港幣", "人民幣"]}, "latitude": "22.362539", "longitude": "114.10334"}, {"@id": "1666", "region": "香港", "area": "新界", "district": "青衣", "ob_name": "中國銀行(香港)有限公司", "addr": "港鐵青衣站", "supp_tran": {"tran_name": ["現金提款, 轉賬, 結餘查詢, 更改私人密碼及其他基本服務", "強積金", "賬單繳費, 信用卡繳費, 慈善捐款", "PLUS", "JCB", "銀聯", "CIRRUS", "FISC"]}, "currencies": {"currency": ["港幣", "人民幣"]}, "latitude": "22.3585318", "longitude": "114.1069773"}, {"@id": "1655", "region": "香港", "area": "新界", "district": "青衣", "ob_name": "東亞銀行有限公司", "addr": "青衣青敬路33號青衣城3樓308A-C號", "supp_tran": {"tran_name": ["現金提款, 轉賬, 結餘查詢, 更改私人密碼及其他基本服務", "強積金", "跨行轉賬", "賬單繳費, 信用卡繳費, 慈善捐款", "PLUS", "JCB", "銀聯", "CIRRUS", "Diners Club", "FISC", "Discover"]}, "currencies": {"currency": "港幣"}, "latitude": "22.359318645025912", "longitude": "114.10838395357132"}, {"@id": "71740", "region": "香港", "area": "新界", "district": "青衣", "ob_name": "東亞銀行有限公司", "addr": "青衣站非付款大堂TSY201號號舖", "supp_tran": {"tran_name": ["現金提款, 轉賬, 結餘查詢, 更改私人密碼及其他基本服務", "強積金", "跨行轉賬", "賬單繳費, 信用卡繳費, 慈善捐款", "PLUS", "JCB", "銀聯", "CIRRUS", "Diners Club", "FISC", "Discover"]}, "currencies": {"currency": "港幣"}, "latitude": "22.35850006085549", "longitude": "114.10705626010895"}, {"@id": "71739", "region": "香港", "area": "新界", "district": "青衣", "ob_name": "東亞銀行有限公司", "addr": "青衣站非付款大堂TSY201號號舖", "supp_tran": {"tran_name": ["現金提款, 轉賬, 結餘查詢, 更改私人密碼及其他基本服務", "強積金", "跨行轉賬", "賬單繳費, 信用卡繳費, 慈善捐款", "PLUS", "JCB", "銀聯", "CIRRUS", "Diners Club", "FISC", "Discover"]}, "currencies": {"currency": ["港幣", "人民幣"]}, "latitude": "22.35850006085549", "longitude": "114.10716891288757"}, {"@id": "68941", "region": "香港", "area": "新界", "district": "青衣", "ob_name": "東亞銀行有限公司", "addr": "新界青衣寮肚路6號長亨邨長亨商場地下自動櫃員機 3號", "supp_tran": {"tran_name": ["現金提款, 轉賬, 結餘查詢, 更改私人密碼及其他基本服務", "強積金", "跨行轉賬", "賬單繳費, 信用卡繳費, 慈善捐款", "PLUS", "JCB", "銀聯", "CIRRUS", "Diners Club", "FISC", "Discover"]}, "currencies": {"currency": "港幣"}, "latitude": "22.354531099706673", "longitude": "114.09773826599121"}, {"@id": "77432", "region": "香港", "area": "新界", "district": "青衣", "ob_name": "東亞銀行有限公司", "addr": "新界青衣長發廣場2樓自動櫃員機 2號", "supp_tran": {"tran_name": ["現金提款, 轉賬, 結餘查詢, 更改私人密碼及其他基本服務", "強積金", "跨行轉賬", "賬單繳費, 信用卡繳費, 慈善捐款", "PLUS", "JCB", "銀聯", "CIRRUS", "Diners Club", "FISC", "Discover"]}, "currencies": {"currency": ["港幣", "人民幣"]}, "latitude": "22.362310157168963", "longitude": "114.10328507423401"}, {"@id": "125595", "region": "香港", "area": "新界", "district": "青衣", "ob_name": "東亞銀行有限公司", "addr": "青衣港鐵站 3 樓 自動櫃員機 ATM 15", "supp_tran": {"tran_name": ["現金提款, 轉賬, 結餘查詢, 更改私人密碼及其他基本服務", "強積金", "跨行轉賬", "賬單繳費, 信用卡繳費, 慈善捐款", "PLUS", "JCB", "銀聯", "CIRRUS", "Diners Club", "FISC", "Discover"]}, "currencies": {"currency": "港幣"}, "latitude": "22.358487", "longitude": "114.107261"}, {"@id": "125594", "region": "香港", "area": "新界", "district": "青衣", "ob_name": "東亞銀行有限公司", "addr": "青衣港鐵站 3 樓 自動櫃員機 ATM 16", "supp_tran": {"tran_name": ["現金提款, 轉賬, 結餘查詢, 更改私人密碼及其他基本服務", "強積金", "跨行轉賬", "賬單繳費, 信用卡繳費, 慈善捐款", "PLUS", "JCB", "銀聯", "CIRRUS", "Diners Club", "FISC", "Discover"]}, "currencies": {"currency": "港幣"}, "latitude": "22.358455410671482", "longitude": "114.10726010799408"}, {"@id": "1656", "region": "香港", "area": "新界", "district": "青衣", "ob_name": "東亞銀行有限公司", "addr": "青衣青敬路33號盈翠半島青衣城一樓173A號舖", "supp_tran": {"tran_name": ["現金提款, 轉賬, 結餘查詢, 更改私人密碼及其他基本服務", "強積金", "跨行轉賬", "賬單繳費, 信用卡繳費, 慈善捐款", "PLUS", "JCB", "銀聯", "CIRRUS", "Diners Club", "FISC", "Discover"]}, "currencies": {"currency": ["港幣", "人民幣"]}, "latitude": "22.359293839515665", "longitude": "114.10803258419037"}, {"@id": "1657", "region": "香港", "area": "新界", "district": "青衣", "ob_name": "東亞銀行有限公司", "addr": "青衣青敬路33號盈翠半島青衣城一樓173A號舖", "supp_tran": {"tran_name": ["現金提款, 轉賬, 結餘查詢, 更改私人密碼及其他基本服務", "強積金", "跨行轉賬", "賬單繳費, 信用卡繳費, 慈善捐款", "PLUS", "JCB", "銀聯", "CIRRUS", "Diners Club", "FISC", "Discover"]}, "currencies": {"currency": "港幣"}, "latitude": "22.35930872282234", "longitude": "114.10828471183777"}, {"@id": "1658", "region": "香港", "area": "新界", "district": "青衣", "ob_name": "東亞銀行有限公司", "addr": "青衣青怡花園商場地下9號舖", "supp_tran": {"tran_name": ["現金提款, 轉賬, 結餘查詢, 更改私人密碼及其他基本服務", "強積金", "跨行轉賬", "賬單繳費, 信用卡繳費, 慈善捐款", "PLUS", "JCB", "銀聯", "CIRRUS", "Diners Club", "FISC", "Discover"]}, "currencies": {"currency": "港幣"}, "latitude": "22.3533056601071", "longitude": "114.1055703163147"}]}}}