{"xml_msg": {"@query": "region=2,area=1,district=15,transaction=7", "supp_cb": null, "atms": {"atm": [{"@id": "319761", "region": "香港", "area": "香港", "district": "上環", "ob_name": "渣打銀行(香港)有限公司", "addr": "香港德輔道中188號金龍中心地下7號舖,1樓至3樓全層", "supp_tran": {"tran_name": ["現金提款, 轉賬, 結餘查詢, 更改私人密碼及其他基本服務", "賬單繳費, 信用卡繳費, 慈善捐款", "PLUS", "銀聯", "CIRRUS"]}, "currencies": {"currency": ["港幣", "人民幣"]}, "latitude": "22.2859473", "longitude": "114.15336409999998"}, {"@id": "319760", "region": "香港", "area": "香港", "district": "上環", "ob_name": "渣打銀行(香港)有限公司", "addr": "香港德輔道中188號金龍中心地下7號舖,1樓至3樓全層", "supp_tran": {"tran_name": ["現金提款, 轉賬, 結餘查詢, 更改私人密碼及其他基本服務", "賬單繳費, 信用卡繳費, 慈善捐款", "PLUS", "銀聯", "CIRRUS"]}, "currencies": {"currency": ["港幣", "人民幣"]}, "latitude": "22.2859473", "longitude": "114.15336409999998"}, {"@id": "319759", "region": "香港", "area": "香港", "district": "上環", "ob_name": "渣打銀行(香港)有限公司", "addr": "香港德輔道中188號金龍中心地下7號舖,1樓至3樓全層", "supp_tran": {"tran_name": ["現金提款, 轉賬, 結餘查詢, 更改私人密碼及其他基本服務", "賬單繳費, 信用卡繳費, 慈善捐款", "PLUS", "銀聯", "CIRRUS"]}, "currencies": {"currency": ["港幣", "人民幣"]}, "latitude": "22.2859473", "longitude": "114.15336409999998"}, {"@id": "705", "region": "香港", "area": "香港", "district": "上環", "ob_name": "渣打銀行(香港)有限公司", "addr": "香港上環信德中心3樓近L37號電梯", "supp_tran": {"tran_name": ["現金提款, 轉賬, 結餘查詢, 更改私人密碼及其他基本服務", "賬單繳費, 信用卡繳費, 慈善捐款", "PLUS", "銀聯", "CIRRUS"]}, "currencies": {"currency": ["港幣", "人民幣"]}, "latitude": "22.288001", "longitude": "114.151542"}, {"@id": "693", "region": "香港", "area": "香港", "district": "上環", "ob_name": "中國建設銀行(亞洲)股份有限公司", "addr": "上環德輔道中237-239號寶軒地下A1-A2號舖", "supp_tran": {"tran_name": ["現金提款, 轉賬, 結餘查詢, 更改私人密碼及其他基本服務", "跨行轉賬", "賬單繳費, 信用卡繳費, 慈善捐款", "PLUS", "銀聯"]}, "currencies": {"currency": ["港幣", "人民幣"]}, "latitude": "22.286532696340302", "longitude": "114.15246069431305"}, {"@id": "690", "region": "香港", "area": "香港", "district": "上環", "ob_name": "中國銀行(香港)有限公司", "addr": "上環皇后大道西2-12號", "supp_tran": {"tran_name": ["現金提款, 轉賬, 結餘查詢, 更改私人密碼及其他基本服務", "強積金", "賬單繳費, 信用卡繳費, 慈善捐款", "PLUS", "JCB", "銀聯", "CIRRUS", "FISC"]}, "currencies": {"currency": ["港幣", "人民幣"]}, "latitude": "22.286279547920383", "longitude": "114.14849370718002"}, {"@id": "7312", "region": "香港", "area": "香港", "district": "上環", "ob_name": "中國銀行(香港)有限公司", "addr": "香港上環皇后大道西2-12 號", "supp_tran": {"tran_name": ["現金提款, 轉賬, 結餘查詢, 更改私人密碼及其他基本服務", "強積金", "賬單繳費, 信用卡繳費, 慈善捐款", "PLUS", "JCB", "銀聯", "CIRRUS", "FISC"]}, "currencies": {"currency": "港幣"}, "latitude": "22.2862313", "longitude": "114.1486352"}, {"@id": "14884", "region": "香港", "area": "香港", "district": "上環", "ob_name": "中國銀行(香港)有限公司", "addr": "香港干諾道中 200 號信德中心二樓 225 號", "supp_tran": {"tran_name": ["現金提款, 轉賬, 結餘查詢, 更改私人密碼及其他基本服務", "強積金", "賬單繳費, 信用卡繳費, 慈善捐款", "PLUS", "JCB", "銀聯", "CIRRUS", "FISC"]}, "currencies": {"currency": "港幣"}, "latitude": "22.287513021680645", "longitude": "114.15254652500153"}, {"@id": "691", "region": "香港", "area": "香港", "district": "上環", "ob_name": "中國銀行(香港)有限公司", "addr": "港鐵上環站", "supp_tran": {"tran_name": ["現金提款, 轉賬, 結餘查詢, 更改私人密碼及其他基本服務", "強積金", "賬單繳費, 信用卡繳費, 慈善捐款", "PLUS", "JCB", "銀聯", "CIRRUS", "FISC"]}, "currencies": {"currency": ["港幣", "人民幣"]}, "latitude": "22.286574887699047", "longitude": "114.152090549469"}, {"@id": "455", "region": "香港", "area": "香港", "district": "上環", "ob_name": "中國銀行(香港)有限公司", "addr": "中環德輔道中252號", "supp_tran": {"tran_name": ["現金提款, 轉賬, 結餘查詢, 更改私人密碼及其他基本服務", "強積金", "賬單繳費, 信用卡繳費, 慈善捐款", "PLUS", "JCB", "銀聯", "CIRRUS", "FISC"]}, "currencies": {"currency": ["港幣", "人民幣"]}, "latitude": "22.286443349891503", "longitude": "114.1519483923912"}, {"@id": "692", "region": "香港", "area": "香港", "district": "上環", "ob_name": "中國銀行(香港)有限公司", "addr": "上環地鐵站﹝東﹞", "supp_tran": {"tran_name": ["現金提款, 轉賬, 結餘查詢, 更改私人密碼及其他基本服務", "強積金", "賬單繳費, 信用卡繳費, 慈善捐款", "PLUS", "JCB", "銀聯", "CIRRUS", "FISC"]}, "currencies": {"currency": ["港幣", "人民幣"]}, "latitude": "22.28656992401044", "longitude": "114.15210664272308"}, {"@id": "462", "region": "香港", "area": "香港", "district": "上環", "ob_name": "中國銀行(香港)有限公司", "addr": "中環德輔道中252號", "supp_tran": {"tran_name": ["現金提款, 轉賬, 結餘查詢, 更改私人密碼及其他基本服務", "強積金", "賬單繳費, 信用卡繳費, 慈善捐款", "PLUS", "JCB", "銀聯", "CIRRUS", "FISC"]}, "currencies": {"currency": ["港幣", "人民幣"]}, "latitude": "22.286438386198228", "longitude": "114.15194571018219"}, {"@id": "466", "region": "香港", "area": "香港", "district": "上環", "ob_name": "中國銀行(香港)有限公司", "addr": "香港中環干諾道中200號信德中心二樓225號", "supp_tran": {"tran_name": ["現金提款, 轉賬, 結餘查詢, 更改私人密碼及其他基本服務", "強積金", "賬單繳費, 信用卡繳費, 慈善捐款", "PLUS", "JCB", "銀聯", "CIRRUS", "FISC"]}, "currencies": {"currency": ["港幣", "人民幣"]}, "latitude": "22.287815804320218", "longitude": "114.15193498134613"}, {"@id": "689", "region": "香港", "area": "香港", "district": "上環", "ob_name": "東亞銀行有限公司", "addr": "上環德輔道中181號地下", "supp_tran": {"tran_name": ["現金提款, 轉賬, 結餘查詢, 更改私人密碼及其他基本服務", "強積金", "跨行轉賬", "賬單繳費, 信用卡繳費, 慈善捐款", "PLUS", "JCB", "銀聯", "CIRRUS", "Diners Club", "FISC", "Discover"]}, "currencies": {"currency": "港幣"}, "latitude": "22.285914715567667", "longitude": "114.15402442216873"}, {"@id": "309229", "region": "香港", "area": "香港", "district": "上環", "ob_name": "東亞銀行有限公司", "addr": "上環般含道19-27號嘉富大廈1-3號", "supp_tran": {"tran_name": ["現金提款, 轉賬, 結餘查詢, 更改私人密碼及其他基本服務", "強積金", "跨行轉賬", "賬單繳費, 信用卡繳費, 慈善捐款", "PLUS", "JCB", "銀聯", "CIRRUS", "FISC", "Diners Club", "Discover"]}, "currencies": {"currency": ["港幣", "人民幣"]}, "latitude": "22.2846048", "longitude": "114.1424955"}, {"@id": "183821", "region": "香港", "area": "香港", "district": "上環", "ob_name": "東亞銀行有限公司", "addr": "香港上環干諾道中200號信德中心2樓 296A 及B號", "supp_tran": {"tran_name": ["現金提款, 轉賬, 結餘查詢, 更改私人密碼及其他基本服務", "強積金", "跨行轉賬", "賬單繳費, 信用卡繳費, 慈善捐款", "PLUS", "JCB", "銀聯", "CIRRUS", "Diners Club", "FISC", "Discover"]}, "currencies": {"currency": ["港幣", "人民幣"]}, "latitude": "22.2878529", "longitude": "114.15182930000003"}, {"@id": "183822", "region": "香港", "area": "香港", "district": "上環", "ob_name": "東亞銀行有限公司", "addr": "香港上環干諾道中200號信德中心2樓 296A 及B號", "supp_tran": {"tran_name": ["現金提款, 轉賬, 結餘查詢, 更改私人密碼及其他基本服務", "強積金", "跨行轉賬", "賬單繳費, 信用卡繳費, 慈善捐款", "PLUS", "JCB", "銀聯", "CIRRUS", "Diners Club", "FISC", "Discover"]}, "currencies": {"currency": "港幣"}, "latitude": "22.2878529", "longitude": "114.15182930000003"}, {"@id": "180722", "region": "香港", "area": "香港", "district": "上環", "ob_name": "招商永隆銀行有限公司", "addr": "上環德輔道中189-195號, 李寶椿大廈", "supp_tran": {"tran_name": ["現金提款, 轉賬, 結餘查詢, 更改私人密碼及其他基本服務", "強積金", "跨行轉賬", "賬單繳費, 信用卡繳費, 慈善捐款", "PLUS", "JCB", "銀聯", "CIRRUS"]}, "currencies": {"currency": ["港幣", "人民幣"]}, "latitude": "22.286213", "longitude": "114.15396800000008"}, {"@id": "703", "region": "香港", "area": "香港", "district": "上環", "ob_name": "上海商業銀行", "addr": "上環蘇杭街41-47號", "supp_tran": {"tran_name": ["現金提款, 轉賬, 結餘查詢, 更改私人密碼及其他基本服務", "強積金", "跨行轉賬", "賬單繳費, 信用卡繳費, 慈善捐款", "PLUS", "JCB", "銀聯", "CIRRUS", "FISC"]}, "currencies": {"currency": ["港幣", "人民幣"]}, "latitude": "22.284931897145732", "longitude": "114.15168821811676"}, {"@id": "698", "region": "香港", "area": "香港", "district": "上環", "ob_name": "大新銀行有限公司", "addr": "上環德輔道中288號易通商業大廈地下B2號鋪連1/F B室", "supp_tran": {"tran_name": ["現金提款, 轉賬, 結餘查詢, 更改私人密碼及其他基本服務", "強積金", "跨行轉賬", "賬單繳費, 信用卡繳費, 慈善捐款", "PLUS", "銀聯", "CIRRUS"]}, "currencies": {"currency": "港幣"}, "latitude": "22.286624524575394", "longitude": "114.15114641189575"}, {"@id": "701", "region": "香港", "area": "香港", "district": "上環", "ob_name": "南洋商業銀行有限公司", "addr": "上環干諾道西160號", "supp_tran": {"tran_name": ["現金提款, 轉賬, 結餘查詢, 更改私人密碼及其他基本服務", "強積金", "跨行轉賬", "賬單繳費, 信用卡繳費, 慈善捐款", "PLUS", "JCB", "銀聯", "CIRRUS"]}, "currencies": {"currency": ["港幣", "人民幣"]}, "latitude": "22.28820544986675", "longitude": "114.1397550702095"}, {"@id": "699", "region": "香港", "area": "香港", "district": "上環", "ob_name": "富邦銀行(香港)有限公司", "addr": "上環道中210號顏氏大廈地下", "supp_tran": {"tran_name": ["現金提款, 轉賬, 結餘查詢, 更改私人密碼及其他基本服務", "強積金", "跨行轉賬", "賬單繳費, 信用卡繳費, 慈善捐款", "PLUS", "銀聯", "CIRRUS"]}, "currencies": {"currency": ["港幣", "人民幣"]}, "latitude": "22.286143046131187", "longitude": "114.15314465761185"}]}}}