{"xml_msg": {"@query": "region=2,area=2,district=23,transaction=0", "supp_cb": null, "atms": {"atm": [{"@id": "874", "region": "香港", "area": "九龍", "district": "紅磡", "ob_name": "渣打銀行(香港)有限公司", "addr": "九龍紅磡馬頭圍道37-39號紅磡商業中心地下33-37號舖", "supp_tran": {"tran_name": ["現金提款, 轉賬, 結餘查詢, 更改私人密碼及其他基本服務", "賬單繳費, 信用卡繳費, 慈善捐款", "PLUS", "銀聯", "CIRRUS"]}, "currencies": {"currency": ["港幣", "人民幣"]}, "latitude": "22.30998664514714", "longitude": "114.1877692937851"}, {"@id": "875", "region": "香港", "area": "九龍", "district": "紅磡", "ob_name": "渣打銀行(香港)有限公司", "addr": "九龍紅磡馬頭圍道37-39號紅磡商業中心地下33-37號舖", "supp_tran": {"tran_name": ["現金提款, 轉賬, 結餘查詢, 更改私人密碼及其他基本服務", "賬單繳費, 信用卡繳費, 慈善捐款", "PLUS", "銀聯", "CIRRUS"]}, "currencies": {"currency": ["港幣", "人民幣"]}, "latitude": "22.309763", "longitude": "114.187812"}, {"@id": "876", "region": "香港", "area": "九龍", "district": "紅磡", "ob_name": "渣打銀行(香港)有限公司", "addr": "九龍紅磡馬頭圍道37-39號紅磡商業中心地下33-37號舖", "supp_tran": {"tran_name": ["現金提款, 轉賬, 結餘查詢, 更改私人密碼及其他基本服務", "賬單繳費, 信用卡繳費, 慈善捐款", "PLUS", "銀聯", "CIRRUS"]}, "currencies": {"currency": ["港幣", "人民幣"]}, "latitude": "22.309763", "longitude": "114.187812"}, {"@id": "872", "region": "香港", "area": "九龍", "district": "紅磡", "ob_name": "渣打銀行(香港)有限公司", "addr": "九龍紅磡海逸道8號海逸坊高層地下", "supp_tran": {"tran_name": ["現金提款, 轉賬, 結餘查詢, 更改私人密碼及其他基本服務", "賬單繳費, 信用卡繳費, 慈善捐款", "PLUS", "銀聯", "CIRRUS"]}, "currencies": {"currency": ["港幣", "人民幣"]}, "latitude": "22.3081189", "longitude": "114.1924191"}, {"@id": "869", "region": "香港", "area": "九龍", "district": "紅磡", "ob_name": "渣打銀行(香港)有限公司", "addr": "九龍紅磡德民街52號黃埔新邨第4期6E及7C1號舖", "supp_tran": {"tran_name": ["現金提款, 轉賬, 結餘查詢, 更改私人密碼及其他基本服務", "賬單繳費, 信用卡繳費, 慈善捐款", "PLUS", "銀聯", "CIRRUS"]}, "currencies": {"currency": ["港幣", "人民幣"]}, "latitude": "22.30596419175958", "longitude": "114.18793827295303"}, {"@id": "870", "region": "香港", "area": "九龍", "district": "紅磡", "ob_name": "渣打銀行(香港)有限公司", "addr": "九龍紅磡德民街52號黃埔新邨第4期6E及7C1號舖", "supp_tran": {"tran_name": ["現金提款, 轉賬, 結餘查詢, 更改私人密碼及其他基本服務", "賬單繳費, 信用卡繳費, 慈善捐款", "PLUS", "銀聯", "CIRRUS"]}, "currencies": {"currency": ["港幣", "人民幣"]}, "latitude": "22.305979080758103", "longitude": "114.18790340423584"}, {"@id": "80413", "region": "香港", "area": "九龍", "district": "紅磡", "ob_name": "渣打銀行(香港)有限公司", "addr": "香港九龍紅磡紅樂道8號, 理大香港專上學院(紅磡灣校園)高層地下", "supp_tran": {"tran_name": ["現金提款, 轉賬, 結餘查詢, 更改私人密碼及其他基本服務", "賬單繳費, 信用卡繳費, 慈善捐款", "PLUS", "銀聯", "CIRRUS"]}, "currencies": {"currency": ["港幣", "人民幣"]}, "latitude": "22.303175", "longitude": "114.184857"}, {"@id": "871", "region": "香港", "area": "九龍", "district": "紅磡", "ob_name": "渣打銀行(香港)有限公司", "addr": "九龍紅磡都會道6號都會商場7樓", "supp_tran": {"tran_name": ["現金提款, 轉賬, 結餘查詢, 更改私人密碼及其他基本服務", "賬單繳費, 信用卡繳費, 慈善捐款", "PLUS", "銀聯", "CIRRUS"]}, "currencies": {"currency": ["港幣", "人民幣"]}, "latitude": "22.302954099958804", "longitude": "114.1834831237793"}, {"@id": "854", "region": "香港", "area": "九龍", "district": "紅磡", "ob_name": "中國建設銀行(亞洲)股份有限公司", "addr": "紅磡德民街17-27號遠華樓地下A1, A2及A3號舖", "supp_tran": {"tran_name": ["現金提款, 轉賬, 結餘查詢, 更改私人密碼及其他基本服務", "跨行轉賬", "賬單繳費, 信用卡繳費, 慈善捐款", "PLUS", "銀聯"]}, "currencies": {"currency": ["港幣", "人民幣"]}, "latitude": "22.30619000806684", "longitude": "114.18775051832199"}, {"@id": "844", "region": "香港", "area": "九龍", "district": "紅磡", "ob_name": "中國銀行(香港)有限公司", "addr": "紅磡馬頭圍道37-39號", "supp_tran": {"tran_name": ["現金提款, 轉賬, 結餘查詢, 更改私人密碼及其他基本服務", "強積金", "賬單繳費, 信用卡繳費, 慈善捐款", "PLUS", "JCB", "銀聯", "CIRRUS", "FISC"]}, "currencies": {"currency": ["港幣", "人民幣"]}, "latitude": "22.31003875513403", "longitude": "114.18775051832199"}, {"@id": "845", "region": "香港", "area": "九龍", "district": "紅磡", "ob_name": "中國銀行(香港)有限公司", "addr": "九龍紅磡香港理工大學邵凂夫樓平台二樓", "supp_tran": {"tran_name": ["現金提款, 轉賬, 結餘查詢, 更改私人密碼及其他基本服務", "強積金", "賬單繳費, 信用卡繳費, 慈善捐款", "PLUS", "JCB", "銀聯", "CIRRUS", "FISC"]}, "currencies": {"currency": ["港幣", "人民幣"]}, "latitude": "22.30451746983174", "longitude": "114.17923986911774"}, {"@id": "848", "region": "香港", "area": "九龍", "district": "紅磡", "ob_name": "中國銀行(香港)有限公司", "addr": "紅磡馬頭圍道21號", "supp_tran": {"tran_name": ["現金提款, 轉賬, 結餘查詢, 更改私人密碼及其他基本服務", "強積金", "賬單繳費, 信用卡繳費, 慈善捐款", "PLUS", "JCB", "銀聯", "CIRRUS", "FISC"]}, "currencies": {"currency": ["港幣", "人民幣"]}, "latitude": "22.307986599524735", "longitude": "114.18763518333435"}, {"@id": "849", "region": "香港", "area": "九龍", "district": "紅磡", "ob_name": "中國銀行(香港)有限公司", "addr": "紅磡黃埔花園第十一期G6", "supp_tran": {"tran_name": ["現金提款, 轉賬, 結餘查詢, 更改私人密碼及其他基本服務", "強積金", "賬單繳費, 信用卡繳費, 慈善捐款", "PLUS", "JCB", "銀聯", "CIRRUS", "FISC"]}, "currencies": {"currency": ["港幣", "人民幣"]}, "latitude": "22.305673855970877", "longitude": "114.19056415557861"}, {"@id": "241803", "region": "香港", "area": "九龍", "district": "紅磡", "ob_name": "中國銀行(香港)有限公司", "addr": "九龍紅磡德民街1-15號黃埔新邨A-E座地下A1-A2及G1號舖", "supp_tran": {"tran_name": ["現金提款, 轉賬, 結餘查詢, 更改私人密碼及其他基本服務", "強積金", "賬單繳費, 信用卡繳費, 慈善捐款", "PLUS", "JCB", "銀聯", "CIRRUS", "FISC"]}, "currencies": {"currency": ["港幣", "人民幣"]}, "latitude": "22.306518", "longitude": "114.187365"}, {"@id": "241804", "region": "香港", "area": "九龍", "district": "紅磡", "ob_name": "中國銀行(香港)有限公司", "addr": "九龍紅磡德民街1-15號黃埔新邨A-E座地下A1-A2及G1號舖", "supp_tran": {"tran_name": ["現金提款, 轉賬, 結餘查詢, 更改私人密碼及其他基本服務", "強積金", "賬單繳費, 信用卡繳費, 慈善捐款", "PLUS", "JCB", "銀聯", "CIRRUS", "FISC"]}, "currencies": {"currency": "港幣"}, "latitude": "22.306518", "longitude": "114.187365"}, {"@id": "850", "region": "香港", "area": "九龍", "district": "紅磡", "ob_name": "中國銀行(香港)有限公司", "addr": "紅磡馬頭圍道47-49號", "supp_tran": {"tran_name": ["現金提款, 轉賬, 結餘查詢, 更改私人密碼及其他基本服務", "強積金", "賬單繳費, 信用卡繳費, 慈善捐款", "PLUS", "JCB", "銀聯", "CIRRUS", "FISC"]}, "currencies": {"currency": ["港幣", "人民幣"]}, "latitude": "22.311656636480677", "longitude": "114.18776124715805"}, {"@id": "258311", "region": "香港", "area": "九龍", "district": "紅磡", "ob_name": "中國銀行(香港)有限公司", "addr": "港鐵紅磡站車站大堂 HUH ATM 6", "supp_tran": {"tran_name": ["現金提款, 轉賬, 結餘查詢, 更改私人密碼及其他基本服務", "強積金", "賬單繳費, 信用卡繳費, 慈善捐款", "JCB", "銀聯", "CIRRUS", "FISC"]}, "currencies": {"currency": ["港幣", "人民幣"]}, "latitude": "22.303198", "longitude": "114.181518"}, {"@id": "258312", "region": "香港", "area": "九龍", "district": "紅磡", "ob_name": "中國銀行(香港)有限公司", "addr": "港鐵紅磡站車站大堂 HUH ATM 6", "supp_tran": {"tran_name": ["現金提款, 轉賬, 結餘查詢, 更改私人密碼及其他基本服務", "強積金", "賬單繳費, 信用卡繳費, 慈善捐款", "JCB", "銀聯", "CIRRUS", "FISC"]}, "currencies": {"currency": "港幣"}, "latitude": "22.303198", "longitude": "114.181518"}, {"@id": "851", "region": "香港", "area": "九龍", "district": "紅磡", "ob_name": "中國銀行(香港)有限公司", "addr": "九龍紅磡黃埔花園第一期商場G8B號", "supp_tran": {"tran_name": ["現金提款, 轉賬, 結餘查詢, 更改私人密碼及其他基本服務", "強積金", "賬單繳費, 信用卡繳費, 慈善捐款", "PLUS", "JCB", "銀聯", "CIRRUS", "FISC"]}, "currencies": {"currency": ["港幣", "人民幣"]}, "latitude": "22.304959180688826", "longitude": "114.187570810318"}, {"@id": "852", "region": "香港", "area": "九龍", "district": "紅磡", "ob_name": "中國銀行(香港)有限公司", "addr": "九龍紅磡黃埔花園第一期商場G8B號", "supp_tran": {"tran_name": ["現金提款, 轉賬, 結餘查詢, 更改私人密碼及其他基本服務", "強積金", "賬單繳費, 信用卡繳費, 慈善捐款", "PLUS", "JCB", "銀聯", "CIRRUS", "FISC"]}, "currencies": {"currency": "港幣"}, "latitude": "22.304854956904652", "longitude": "114.18756544589996"}, {"@id": "853", "region": "香港", "area": "九龍", "district": "紅磡", "ob_name": "中國銀行(香港)有限公司", "addr": "紅磡馬頭圍道21號", "supp_tran": {"tran_name": ["現金提款, 轉賬, 結餘查詢, 更改私人密碼及其他基本服務", "強積金", "賬單繳費, 信用卡繳費, 慈善捐款", "PLUS", "JCB", "銀聯", "CIRRUS", "FISC"]}, "currencies": {"currency": ["港幣", "人民幣"]}, "latitude": "22.307961784883013", "longitude": "114.18765127658844"}, {"@id": "839", "region": "香港", "area": "九龍", "district": "紅磡", "ob_name": "東亞銀行有限公司", "addr": "紅磡馬頭圍道23至27號地下", "supp_tran": {"tran_name": ["現金提款, 轉賬, 結餘查詢, 更改私人密碼及其他基本服務", "強積金", "跨行轉賬", "賬單繳費, 信用卡繳費, 慈善捐款", "PLUS", "JCB", "銀聯", "CIRRUS", "FISC", "Diners Club", "Discover"]}, "currencies": {"currency": "港幣"}, "latitude": "22.308971737238874", "longitude": "114.18771028518677"}, {"@id": "156036", "region": "香港", "area": "九龍", "district": "紅磡", "ob_name": "東亞銀行有限公司", "addr": "九龍紅磡馬頭圍道23至27號地下", "supp_tran": {"tran_name": ["現金提款, 轉賬, 結餘查詢, 更改私人密碼及其他基本服務", "強積金", "跨行轉賬", "賬單繳費, 信用卡繳費, 慈善捐款", "PLUS", "JCB", "銀聯", "CIRRUS", "FISC", "Diners Club", "Discover"]}, "currencies": {"currency": "港幣"}, "latitude": "22.31999758751931", "longitude": "114.1897609564835"}, {"@id": "840", "region": "香港", "area": "九龍", "district": "紅磡", "ob_name": "東亞銀行有限公司", "addr": "紅磡黃埔花園第9期地下1至3號", "supp_tran": {"tran_name": ["現金提款, 轉賬, 結餘查詢, 更改私人密碼及其他基本服務", "強積金", "跨行轉賬", "賬單繳費, 信用卡繳費, 慈善捐款", "PLUS", "JCB", "銀聯", "CIRRUS", "Diners Club", "FISC", "Discover"]}, "currencies": {"currency": "港幣"}, "latitude": "22.3027647", "longitude": "114.1905199"}, {"@id": "841", "region": "香港", "area": "九龍", "district": "紅磡", "ob_name": "東亞銀行有限公司", "addr": "紅磡香港理工大學邵逸夫樓VA210室", "supp_tran": {"tran_name": ["現金提款, 轉賬, 結餘查詢, 更改私人密碼及其他基本服務", "強積金", "跨行轉賬", "賬單繳費, 信用卡繳費, 慈善捐款", "PLUS", "JCB", "銀聯", "CIRRUS", "FISC", "Diners Club", "Discover"]}, "currencies": {"currency": "港幣"}, "latitude": "22.3045733", "longitude": "114.179327"}, {"@id": "281617", "region": "香港", "area": "九龍", "district": "紅磡", "ob_name": "東亞銀行有限公司", "addr": "紅磡香港理工大學邵逸夫樓VA210室", "supp_tran": {"tran_name": ["現金提款, 轉賬, 結餘查詢, 更改私人密碼及其他基本服務", "強積金", "跨行轉賬", "賬單繳費, 信用卡繳費, 慈善捐款", "PLUS", "JCB", "銀聯", "CIRRUS", "FISC", "Diners Club", "Discover"]}, "currencies": {"currency": "港幣"}, "latitude": "22.3045733", "longitude": "114.17932700000006"}, {"@id": "231815", "region": "香港", "area": "九龍", "district": "紅磡", "ob_name": "東亞銀行有限公司", "addr": "紅磡黃埔新天地第12期家居庭地面12G2號舖", "supp_tran": {"tran_name": ["現金提款, 轉賬, 結餘查詢, 更改私人密碼及其他基本服務", "強積金", "跨行轉賬", "賬單繳費, 信用卡繳費, 慈善捐款", "PLUS", "JCB", "銀聯", "CIRRUS", "FISC", "Diners Club", "Discover"]}, "currencies": {"currency": ["港幣", "人民幣"]}, "latitude": "22.305975", "longitude": "114.191020"}, {"@id": "231816", "region": "香港", "area": "九龍", "district": "紅磡", "ob_name": "東亞銀行有限公司", "addr": "紅磡黃埔新天地第12期家居庭地面12G2號舖", "supp_tran": {"tran_name": ["現金提款, 轉賬, 結餘查詢, 更改私人密碼及其他基本服務", "強積金", "跨行轉賬", "賬單繳費, 信用卡繳費, 慈善捐款", "PLUS", "JCB", "銀聯", "CIRRUS", "FISC", "Diners Club", "Discover"]}, "currencies": {"currency": "港幣"}, "latitude": "22.305975", "longitude": "114.191020"}, {"@id": "843", "region": "香港", "area": "九龍", "district": "紅磡", "ob_name": "東亞銀行有限公司", "addr": "紅磡都會道6號國際都會5樓3號行人天橋大堂入口", "supp_tran": {"tran_name": ["現金提款, 轉賬, 結餘查詢, 更改私人密碼及其他基本服務", "強積金", "跨行轉賬", "賬單繳費, 信用卡繳費, 慈善捐款", "PLUS", "JCB", "銀聯", "CIRRUS", "FISC", "Diners Club", "Discover"]}, "currencies": {"currency": "港幣"}, "latitude": "22.30286972711879", "longitude": "114.18321222066879"}, {"@id": "860", "region": "香港", "area": "九龍", "district": "紅磡", "ob_name": "星展銀行(香港)有限公司", "addr": "紅磡德民街16號安富樓地下", "supp_tran": {"tran_name": ["現金提款, 轉賬, 結餘查詢, 更改私人密碼及其他基本服務", "賬單繳費, 信用卡繳費, 慈善捐款", "PLUS", "銀聯", "CIRRUS"]}, "currencies": {"currency": ["港幣", "人民幣"]}, "latitude": "22.30616023011315", "longitude": "114.18749839067459"}, {"@id": "855", "region": "香港", "area": "九龍", "district": "紅磡", "ob_name": "中信銀行(國際)有限公司", "addr": "紅磡蕪湖街61-63號", "supp_tran": {"tran_name": ["現金提款, 轉賬, 結餘查詢, 更改私人密碼及其他基本服務", "跨行轉賬", "賬單繳費, 信用卡繳費, 慈善捐款", "銀聯"]}, "currencies": {"currency": ["港幣", "人民幣"]}, "latitude": "22.306626750658094", "longitude": "114.18678492307663"}, {"@id": "879", "region": "香港", "area": "九龍", "district": "紅磡", "ob_name": "招商永隆銀行有限公司", "addr": "紅磡蕪湖街28號", "supp_tran": {"tran_name": ["現金提款, 轉賬, 結餘查詢, 更改私人密碼及其他基本服務", "強積金", "跨行轉賬", "賬單繳費, 信用卡繳費, 慈善捐款", "PLUS", "JCB", "銀聯", "CIRRUS"]}, "currencies": {"currency": ["港幣", "人民幣"]}, "latitude": "22.306569676419766", "longitude": "114.18709605932236"}, {"@id": "868", "region": "香港", "area": "九龍", "district": "紅磡", "ob_name": "上海商業銀行", "addr": "紅磡黃埔花園第四期棕櫚苑商場9號", "supp_tran": {"tran_name": ["現金提款, 轉賬, 結餘查詢, 更改私人密碼及其他基本服務", "強積金", "跨行轉賬", "賬單繳費, 信用卡繳費, 慈善捐款", "PLUS", "JCB", "銀聯", "CIRRUS", "FISC"]}, "currencies": {"currency": ["港幣", "人民幣"]}, "latitude": "22.303936791635927", "longitude": "114.18792486190796"}, {"@id": "838", "region": "香港", "area": "九龍", "district": "紅磡", "ob_name": "交通銀行股份有限公司", "addr": "九龍黃埔新邨德民街1-3號地下A6號舖", "supp_tran": {"tran_name": ["現金提款, 轉賬, 結餘查詢, 更改私人密碼及其他基本服務", "強積金", "跨行轉賬", "賬單繳費, 信用卡繳費, 慈善捐款", "PLUS", "銀聯", "CIRRUS"]}, "currencies": {"currency": ["港幣", "人民幣"]}, "latitude": "22.306425749976075", "longitude": "114.18735086917877"}, {"@id": "914", "region": "香港", "area": "九龍", "district": "紅磡", "ob_name": "交通銀行股份有限公司", "addr": "紅磡馬頭圍道370-376號海潤大廈地下1-3號舖", "supp_tran": {"tran_name": ["現金提款, 轉賬, 結餘查詢, 更改私人密碼及其他基本服務", "強積金", "跨行轉賬", "賬單繳費, 信用卡繳費, 慈善捐款", "PLUS", "銀聯", "CIRRUS"]}, "currencies": {"currency": ["港幣", "人民幣"]}, "latitude": "22.318472872392295", "longitude": "114.18739914894104"}, {"@id": "867", "region": "香港", "area": "九龍", "district": "紅磡", "ob_name": "大眾銀行(香港)有限公司", "addr": "九龍紅磡馬頭圍道37號紅磡商業中心地下", "supp_tran": {"tran_name": ["現金提款, 轉賬, 結餘查詢, 更改私人密碼及其他基本服務", "強積金", "跨行轉賬", "賬單繳費, 信用卡繳費, 慈善捐款", "JCB", "銀聯"]}, "currencies": {"currency": ["港幣", "人民幣"]}, "latitude": "22.310058606552502", "longitude": "114.18778538703918"}, {"@id": "89170", "region": "香港", "area": "九龍", "district": "紅磡", "ob_name": "華僑永亨銀行有限公司", "addr": "紅磡馬頭圍道104號", "supp_tran": {"tran_name": ["現金提款, 轉賬, 結餘查詢, 更改私人密碼及其他基本服務", "強積金", "跨行轉賬", "賬單繳費, 信用卡繳費, 慈善捐款", "JCB", "銀聯"]}, "currencies": {"currency": "港幣"}, "latitude": "22.310344", "longitude": "114.187418"}, {"@id": "86236", "region": "香港", "area": "九龍", "district": "紅磡", "ob_name": "華僑永亨銀行有限公司", "addr": "紅磡黃埔新邨德民街8至10號", "supp_tran": {"tran_name": ["現金提款, 轉賬, 結餘查詢, 更改私人密碼及其他基本服務", "強積金", "跨行轉賬", "賬單繳費, 信用卡繳費, 慈善捐款", "JCB", "銀聯"]}, "currencies": {"currency": "港幣"}, "latitude": "22.3063795", "longitude": "114.1874009"}, {"@id": "859", "region": "香港", "area": "九龍", "district": "紅磡", "ob_name": "集友銀行有限公司", "addr": "九龍紅磡機利士路23-25號", "supp_tran": {"tran_name": ["現金提款, 轉賬, 結餘查詢, 更改私人密碼及其他基本服務", "強積金", "賬單繳費, 信用卡繳費, 慈善捐款", "PLUS", "JCB", "銀聯", "CIRRUS"]}, "currencies": {"currency": ["港幣", "人民幣"]}, "latitude": "22.3067421", "longitude": "114.1841246"}, {"@id": "863", "region": "香港", "area": "九龍", "district": "紅磡", "ob_name": "大新銀行有限公司", "addr": "九龍紅磡蕪湖街28號昌隆閣地下3 及4號舖, 1樓2 號舖及2樓3 號舖", "supp_tran": {"tran_name": ["現金提款, 轉賬, 結餘查詢, 更改私人密碼及其他基本服務", "強積金", "跨行轉賬", "賬單繳費, 信用卡繳費, 慈善捐款", "PLUS", "銀聯", "CIRRUS"]}, "currencies": {"currency": "港幣"}, "latitude": "22.30679797323311", "longitude": "114.18725162744522"}, {"@id": "152982", "region": "香港", "area": "九龍", "district": "紅磡", "ob_name": "南洋商業銀行有限公司", "addr": "九龍紅磡蕪湖街69號A", "supp_tran": {"tran_name": ["現金提款, 轉賬, 結餘查詢, 更改私人密碼及其他基本服務", "強積金", "賬單繳費, 信用卡繳費, 慈善捐款", "PLUS", "JCB", "銀聯", "CIRRUS", "FISC"]}, "currencies": {"currency": ["港幣", "人民幣"]}, "latitude": "22.3068272", "longitude": "114.18663709999998"}, {"@id": "865", "region": "香港", "area": "九龍", "district": "紅磡", "ob_name": "中國工商銀行(亞洲)有限公司", "addr": "紅磡德民街2-34E號紅磡商場地下2A舖", "supp_tran": {"tran_name": ["現金提款, 轉賬, 結餘查詢, 更改私人密碼及其他基本服務", "跨行轉賬", "賬單繳費, 信用卡繳費, 慈善捐款", "JCB", "銀聯", "CIRRUS"]}, "currencies": {"currency": ["港幣", "人民幣"]}, "latitude": "22.306386046103448", "longitude": "114.18723821640015"}, {"@id": "864", "region": "香港", "area": "九龍", "district": "紅磡", "ob_name": "富邦銀行(香港)有限公司", "addr": "紅磡黃埔新村德民街13號地下A3號舖", "supp_tran": {"tran_name": ["現金提款, 轉賬, 結餘查詢, 更改私人密碼及其他基本服務", "強積金", "跨行轉賬", "賬單繳費, 信用卡繳費, 慈善捐款", "PLUS", "銀聯", "CIRRUS"]}, "currencies": {"currency": ["港幣", "人民幣"]}, "latitude": "22.3062868", "longitude": "114.1875907"}, {"@id": "857", "region": "香港", "area": "九龍", "district": "紅磡", "ob_name": "花旗銀行(香港)有限公司", "addr": "紅磡黃埔花園金柏苑第一期地下9號", "supp_tran": {"tran_name": ["現金提款, 轉賬, 結餘查詢, 更改私人密碼及其他基本服務", "賬單繳費, 信用卡繳費, 慈善捐款", "PLUS", "銀聯", "CIRRUS"]}, "currencies": {"currency": ["港幣", "人民幣"]}, "latitude": "22.304964143724224", "longitude": "114.18758153915405"}, {"@id": "77500", "region": "香港", "area": "九龍", "district": "紅磡", "ob_name": "花旗銀行(香港)有限公司", "addr": "紅磡黃埔花園金柏苑第一期地下9號", "supp_tran": {"tran_name": ["現金提款, 轉賬, 結餘查詢, 更改私人密碼及其他基本服務", "賬單繳費, 信用卡繳費, 慈善捐款", "PLUS", "銀聯", "CIRRUS"]}, "currencies": {"currency": ["港幣", "人民幣"]}, "latitude": "22.304849993865375", "longitude": "114.18817162513733"}]}}}