{"xml_msg": {"@query": "region=2,area=2,district=19,transaction=2", "supp_cb": null, "atms": {"atm": [{"@id": "156035", "region": "香港", "area": "九龍", "district": "長沙灣", "ob_name": "東亞銀行有限公司", "addr": "九龍長沙灣青山道305號地下1號", "supp_tran": {"tran_name": ["現金提款, 轉賬, 結餘查詢, 更改私人密碼及其他基本服務", "強積金", "跨行轉賬", "賬單繳費, 信用卡繳費, 慈善捐款", "PLUS", "JCB", "銀聯", "CIRRUS", "Diners Club", "FISC", "Discover"]}, "currencies": {"currency": "港幣"}, "latitude": "22.337857", "longitude": "114.15681500000005"}, {"@id": "156034", "region": "香港", "area": "九龍", "district": "長沙灣", "ob_name": "東亞銀行有限公司", "addr": "九龍長沙灣青山道305號地下1號", "supp_tran": {"tran_name": ["現金提款, 轉賬, 結餘查詢, 更改私人密碼及其他基本服務", "強積金", "跨行轉賬", "賬單繳費, 信用卡繳費, 慈善捐款", "PLUS", "JCB", "銀聯", "CIRRUS", "Diners Club", "FISC", "Discover"]}, "currencies": {"currency": ["港幣", "人民幣"]}, "latitude": "22.337857", "longitude": "114.15681500000005"}, {"@id": "206065", "region": "香港", "area": "九龍", "district": "長沙灣", "ob_name": "東亞銀行有限公司", "addr": "長沙灣長沙灣道833號長沙灣廣場1樓117-119號", "supp_tran": {"tran_name": ["現金提款, 轉賬, 結餘查詢, 更改私人密碼及其他基本服務", "強積金", "跨行轉賬", "賬單繳費, 信用卡繳費, 慈善捐款", "PLUS", "銀聯", "CIRRUS", "Diners Club", "FISC", "Discover"]}, "currencies": {"currency": "港幣"}, "latitude": "22.3371205", "longitude": "114.14873549999993"}, {"@id": "206066", "region": "香港", "area": "九龍", "district": "長沙灣", "ob_name": "東亞銀行有限公司", "addr": "長沙灣長沙灣道833號長沙灣廣場1樓117-119號", "supp_tran": {"tran_name": ["現金提款, 轉賬, 結餘查詢, 更改私人密碼及其他基本服務", "強積金", "跨行轉賬", "賬單繳費, 信用卡繳費, 慈善捐款", "PLUS", "JCB", "銀聯", "CIRRUS", "Diners Club", "FISC", "Discover"]}, "currencies": {"currency": "港幣"}, "latitude": "22.3371205", "longitude": "114.14873549999993"}, {"@id": "330273", "region": "香港", "area": "九龍", "district": "長沙灣", "ob_name": "東亞銀行有限公司", "addr": "九龍長沙灣青山灣399號地下喜雅", "supp_tran": {"tran_name": ["現金提款, 轉賬, 結餘查詢, 更改私人密碼及其他基本服務", "強積金", "跨行轉賬", "賬單繳費, 信用卡繳費, 慈善捐款", "PLUS", "JCB", "銀聯", "CIRRUS", "FISC", "Diners Club", "Discover"]}, "currencies": {"currency": "港幣"}, "latitude": "22.339566832866243", "longitude": "114.15474882635453"}, {"@id": "89152", "region": "香港", "area": "九龍", "district": "長沙灣", "ob_name": "華僑永亨銀行有限公司", "addr": "長沙灣青山道253至259號2號舖", "supp_tran": {"tran_name": ["現金提款, 轉賬, 結餘查詢, 更改私人密碼及其他基本服務", "強積金", "跨行轉賬", "賬單繳費, 信用卡繳費, 慈善捐款", "JCB", "銀聯"]}, "currencies": {"currency": "港幣"}, "latitude": "22.3372756", "longitude": "114.1578502"}, {"@id": "812", "region": "香港", "area": "九龍", "district": "長沙灣", "ob_name": "集友銀行有限公司", "addr": "九龍青山道226-228號", "supp_tran": {"tran_name": ["現金提款, 轉賬, 結餘查詢, 更改私人密碼及其他基本服務", "強積金", "跨行轉賬", "賬單繳費, 信用卡繳費, 慈善捐款", "PLUS", "JCB", "銀聯", "CIRRUS", "FISC"]}, "currencies": {"currency": ["港幣", "人民幣"]}, "latitude": "22.3369021", "longitude": "114.1583705"}, {"@id": "66151", "region": "香港", "area": "九龍", "district": "長沙灣", "ob_name": "中國工商銀行(亞洲)有限公司", "addr": "九龍長沙灣幸福邨商場一樓", "supp_tran": {"tran_name": ["現金提款, 轉賬, 結餘查詢, 更改私人密碼及其他基本服務", "跨行轉賬", "賬單繳費, 信用卡繳費, 慈善捐款", "JCB", "銀聯", "CIRRUS"]}, "currencies": {"currency": ["港幣", "人民幣"]}, "latitude": "22.335195681106644", "longitude": "114.15447771549225"}, {"@id": "199837", "region": "香港", "area": "九龍", "district": "長沙灣", "ob_name": "中國工商銀行(亞洲)有限公司", "addr": "九龍長沙灣元州街303號元州商場地下", "supp_tran": {"tran_name": ["現金提款, 轉賬, 結餘查詢, 更改私人密碼及其他基本服務", "跨行轉賬", "賬單繳費, 信用卡繳費, 慈善捐款", "JCB", "銀聯", "CIRRUS"]}, "currencies": {"currency": ["港幣", "人民幣"]}, "latitude": "22.3383", "longitude": "114.15508299999999"}]}}}