{"xml_msg": {"@query": "region=2,area=2,district=23,transaction=584", "supp_cb": null, "atms": {"atm": [{"@id": "839", "region": "香港", "area": "九龍", "district": "紅磡", "ob_name": "東亞銀行有限公司", "addr": "紅磡馬頭圍道23至27號地下", "supp_tran": {"tran_name": ["現金提款, 轉賬, 結餘查詢, 更改私人密碼及其他基本服務", "強積金", "跨行轉賬", "賬單繳費, 信用卡繳費, 慈善捐款", "PLUS", "JCB", "銀聯", "CIRRUS", "FISC", "Diners Club", "Discover"]}, "currencies": {"currency": "港幣"}, "latitude": "22.308971737238874", "longitude": "114.18771028518677"}, {"@id": "156036", "region": "香港", "area": "九龍", "district": "紅磡", "ob_name": "東亞銀行有限公司", "addr": "九龍紅磡馬頭圍道23至27號地下", "supp_tran": {"tran_name": ["現金提款, 轉賬, 結餘查詢, 更改私人密碼及其他基本服務", "強積金", "跨行轉賬", "賬單繳費, 信用卡繳費, 慈善捐款", "PLUS", "JCB", "銀聯", "CIRRUS", "FISC", "Diners Club", "Discover"]}, "currencies": {"currency": "港幣"}, "latitude": "22.31999758751931", "longitude": "114.1897609564835"}, {"@id": "840", "region": "香港", "area": "九龍", "district": "紅磡", "ob_name": "東亞銀行有限公司", "addr": "紅磡黃埔花園第9期地下1至3號", "supp_tran": {"tran_name": ["現金提款, 轉賬, 結餘查詢, 更改私人密碼及其他基本服務", "強積金", "跨行轉賬", "賬單繳費, 信用卡繳費, 慈善捐款", "PLUS", "JCB", "銀聯", "CIRRUS", "Diners Club", "FISC", "Discover"]}, "currencies": {"currency": "港幣"}, "latitude": "22.3027647", "longitude": "114.1905199"}, {"@id": "841", "region": "香港", "area": "九龍", "district": "紅磡", "ob_name": "東亞銀行有限公司", "addr": "紅磡香港理工大學邵逸夫樓VA210室", "supp_tran": {"tran_name": ["現金提款, 轉賬, 結餘查詢, 更改私人密碼及其他基本服務", "強積金", "跨行轉賬", "賬單繳費, 信用卡繳費, 慈善捐款", "PLUS", "JCB", "銀聯", "CIRRUS", "FISC", "Diners Club", "Discover"]}, "currencies": {"currency": "港幣"}, "latitude": "22.3045733", "longitude": "114.179327"}, {"@id": "281617", "region": "香港", "area": "九龍", "district": "紅磡", "ob_name": "東亞銀行有限公司", "addr": "紅磡香港理工大學邵逸夫樓VA210室", "supp_tran": {"tran_name": ["現金提款, 轉賬, 結餘查詢, 更改私人密碼及其他基本服務", "強積金", "跨行轉賬", "賬單繳費, 信用卡繳費, 慈善捐款", "PLUS", "JCB", "銀聯", "CIRRUS", "FISC", "Diners Club", "Discover"]}, "currencies": {"currency": "港幣"}, "latitude": "22.3045733", "longitude": "114.17932700000006"}, {"@id": "231815", "region": "香港", "area": "九龍", "district": "紅磡", "ob_name": "東亞銀行有限公司", "addr": "紅磡黃埔新天地第12期家居庭地面12G2號舖", "supp_tran": {"tran_name": ["現金提款, 轉賬, 結餘查詢, 更改私人密碼及其他基本服務", "強積金", "跨行轉賬", "賬單繳費, 信用卡繳費, 慈善捐款", "PLUS", "JCB", "銀聯", "CIRRUS", "FISC", "Diners Club", "Discover"]}, "currencies": {"currency": ["港幣", "人民幣"]}, "latitude": "22.305975", "longitude": "114.191020"}, {"@id": "231816", "region": "香港", "area": "九龍", "district": "紅磡", "ob_name": "東亞銀行有限公司", "addr": "紅磡黃埔新天地第12期家居庭地面12G2號舖", "supp_tran": {"tran_name": ["現金提款, 轉賬, 結餘查詢, 更改私人密碼及其他基本服務", "強積金", "跨行轉賬", "賬單繳費, 信用卡繳費, 慈善捐款", "PLUS", "JCB", "銀聯", "CIRRUS", "FISC", "Diners Club", "Discover"]}, "currencies": {"currency": "港幣"}, "latitude": "22.305975", "longitude": "114.191020"}, {"@id": "843", "region": "香港", "area": "九龍", "district": "紅磡", "ob_name": "東亞銀行有限公司", "addr": "紅磡都會道6號國際都會5樓3號行人天橋大堂入口", "supp_tran": {"tran_name": ["現金提款, 轉賬, 結餘查詢, 更改私人密碼及其他基本服務", "強積金", "跨行轉賬", "賬單繳費, 信用卡繳費, 慈善捐款", "PLUS", "JCB", "銀聯", "CIRRUS", "FISC", "Diners Club", "Discover"]}, "currencies": {"currency": "港幣"}, "latitude": "22.30286972711879", "longitude": "114.18321222066879"}]}}}