{"xml_msg": {"@query": "region=2,area=2,district=35,transaction=5", "supp_cb": null, "atms": {"atm": [{"@id": "1119", "region": "香港", "area": "九龍", "district": "牛頭角", "ob_name": "中國銀行(香港)有限公司", "addr": "牛頭角彩盈坊彩盈商場鄰近2號商舖的空地ATM位置", "supp_tran": {"tran_name": ["現金提款, 轉賬, 結餘查詢, 更改私人密碼及其他基本服務", "強積金", "賬單繳費, 信用卡繳費, 慈善捐款", "PLUS", "JCB", "銀聯", "CIRRUS", "FISC"]}, "currencies": {"currency": ["港幣", "人民幣"]}, "latitude": "22.32799569079781", "longitude": "114.21452164649963"}, {"@id": "14891", "region": "香港", "area": "九龍", "district": "牛頭角", "ob_name": "中國銀行(香港)有限公司", "addr": "九龍牛頭角道 169 號", "supp_tran": {"tran_name": ["現金提款, 轉賬, 結餘查詢, 更改私人密碼及其他基本服務", "強積金", "賬單繳費, 信用卡繳費, 慈善捐款", "PLUS", "JCB", "銀聯", "CIRRUS", "FISC"]}, "currencies": {"currency": "港幣"}, "latitude": "22.3233683", "longitude": "114.2162911"}, {"@id": "68944", "region": "香港", "area": "九龍", "district": "牛頭角", "ob_name": "中國銀行(香港)有限公司", "addr": "九龍牛頭角振華路70號樂華 (北邨) 商場3樓 3 號 ATM", "supp_tran": {"tran_name": ["現金提款, 轉賬, 結餘查詢, 更改私人密碼及其他基本服務", "強積金", "賬單繳費, 信用卡繳費, 慈善捐款", "PLUS", "JCB", "銀聯", "CIRRUS", "FISC"]}, "currencies": {"currency": ["港幣", "人民幣"]}, "latitude": "22.321802707172655", "longitude": "114.22005236148834"}, {"@id": "1120", "region": "香港", "area": "九龍", "district": "牛頭角", "ob_name": "中國銀行(香港)有限公司", "addr": "九龍牛頭角道169號", "supp_tran": {"tran_name": ["現金提款, 轉賬, 結餘查詢, 更改私人密碼及其他基本服務", "強積金", "賬單繳費, 信用卡繳費, 慈善捐款", "PLUS", "JCB", "銀聯", "CIRRUS", "FISC"]}, "currencies": {"currency": ["港幣", "人民幣"]}, "latitude": "22.323365865992315", "longitude": "114.21631336212158"}, {"@id": "1121", "region": "香港", "area": "九龍", "district": "牛頭角", "ob_name": "中國銀行(香港)有限公司", "addr": "牛頭角港鐵站", "supp_tran": {"tran_name": ["現金提款, 轉賬, 結餘查詢, 更改私人密碼及其他基本服務", "強積金", "賬單繳費, 信用卡繳費, 慈善捐款", "PLUS", "JCB", "銀聯", "CIRRUS", "FISC"]}, "currencies": {"currency": ["港幣", "人民幣"]}, "latitude": "22.315480419561776", "longitude": "114.21924233436584"}, {"@id": "1118", "region": "香港", "area": "九龍", "district": "牛頭角", "ob_name": "東亞銀行有限公司", "addr": "牛頭角振華道70號樂華﹝北﹞商場二樓二號自動櫃員機", "supp_tran": {"tran_name": ["現金提款, 轉賬, 結餘查詢, 更改私人密碼及其他基本服務", "強積金", "跨行轉賬", "賬單繳費, 信用卡繳費, 慈善捐款", "PLUS", "JCB", "銀聯", "CIRRUS", "Diners Club", "FISC", "Discover"]}, "currencies": {"currency": "港幣"}, "latitude": "22.321802707172655", "longitude": "114.22007381916046"}, {"@id": "30596", "region": "香港", "area": "九龍", "district": "牛頭角", "ob_name": "星展銀行(香港)有限公司", "addr": "牛頭角牛頭角道 77 號淘大商場 G45-48 號舖", "supp_tran": {"tran_name": ["現金提款, 轉賬, 結餘查詢, 更改私人密碼及其他基本服務", "賬單繳費, 信用卡繳費, 慈善捐款", "PLUS", "銀聯", "CIRRUS"]}, "currencies": {"currency": ["港幣", "人民幣"]}, "latitude": "22.32376", "longitude": "114.216373"}, {"@id": "1124", "region": "香港", "area": "九龍", "district": "牛頭角", "ob_name": "星展銀行(香港)有限公司", "addr": "牛頭角牛頭角道 77 號淘大商場 G45-48 號舖", "supp_tran": {"tran_name": ["現金提款, 轉賬, 結餘查詢, 更改私人密碼及其他基本服務", "賬單繳費, 信用卡繳費, 慈善捐款", "PLUS", "銀聯", "CIRRUS"]}, "currencies": {"currency": ["港幣", "人民幣"]}, "latitude": "22.32376", "longitude": "114.216373"}, {"@id": "1115", "region": "香港", "area": "九龍", "district": "牛頭角", "ob_name": "交通銀行股份有限公司", "addr": "牛頭角牛頭角道77號淘大花園1期地下G1-G2舖", "supp_tran": {"tran_name": ["現金提款, 轉賬, 結餘查詢, 更改私人密碼及其他基本服務", "強積金", "跨行轉賬", "賬單繳費, 信用卡繳費, 慈善捐款", "PLUS", "銀聯", "CIRRUS"]}, "currencies": {"currency": ["港幣", "人民幣"]}, "latitude": "22.323884433859643", "longitude": "114.21601295471191"}, {"@id": "1116", "region": "香港", "area": "九龍", "district": "牛頭角", "ob_name": "交通銀行股份有限公司", "addr": "牛頭角牛頭角道77號淘大花園1期地下G1-G2舖", "supp_tran": {"tran_name": ["現金提款, 轉賬, 結餘查詢, 更改私人密碼及其他基本服務", "強積金", "跨行轉賬", "賬單繳費, 信用卡繳費, 慈善捐款", "PLUS", "銀聯", "CIRRUS"]}, "currencies": {"currency": ["港幣", "人民幣"]}, "latitude": "22.323857140862042", "longitude": "114.21601295471191"}, {"@id": "1123", "region": "香港", "area": "九龍", "district": "牛頭角", "ob_name": "創興銀行有限公司", "addr": "牛頭角順利邨利溢樓", "supp_tran": {"tran_name": ["現金提款, 轉賬, 結餘查詢, 更改私人密碼及其他基本服務", "強積金", "跨行轉賬", "賬單繳費, 信用卡繳費, 慈善捐款", "銀聯"]}, "currencies": {"currency": "港幣"}, "latitude": "22.331149143735892", "longitude": "114.22632604837418"}, {"@id": "80393", "region": "香港", "area": "九龍", "district": "牛頭角", "ob_name": "中國工商銀行(亞洲)有限公司", "addr": "九龍牛頭角彩德商場5樓 ATM位置", "supp_tran": {"tran_name": ["現金提款, 轉賬, 結餘查詢, 更改私人密碼及其他基本服務", "跨行轉賬", "賬單繳費, 信用卡繳費, 慈善捐款", "JCB", "銀聯", "CIRRUS"]}, "currencies": {"currency": ["港幣", "人民幣"]}, "latitude": "22.330040109012053", "longitude": "114.21329855918884"}, {"@id": "92189", "region": "香港", "area": "九龍", "district": "牛頭角", "ob_name": "中國工商銀行(亞洲)有限公司", "addr": "牛頭角道3號德寶商場地下", "supp_tran": {"tran_name": ["現金提款, 轉賬, 結餘查詢, 更改私人密碼及其他基本服務", "跨行轉賬", "賬單繳費, 信用卡繳費, 慈善捐款", "JCB", "銀聯", "CIRRUS"]}, "currencies": {"currency": ["港幣", "人民幣"]}, "latitude": "22.32682460279041", "longitude": "114.21409249305725"}, {"@id": "128620", "region": "香港", "area": "九龍", "district": "牛頭角", "ob_name": "中國工商銀行(亞洲)有限公司", "addr": "牛頭角下邨貴顯樓地下", "supp_tran": {"tran_name": ["現金提款, 轉賬, 結餘查詢, 更改私人密碼及其他基本服務", "跨行轉賬", "賬單繳費, 信用卡繳費, 慈善捐款", "JCB", "銀聯", "CIRRUS"]}, "currencies": {"currency": ["港幣", "人民幣"]}, "latitude": "22.321921805603725", "longitude": "114.21541213989258"}]}}}