{"xml_msg": {"@query": "region=2,area=2,district=37,transaction=575", "supp_cb": null, "atms": {"atm": [{"@id": "1154", "region": "香港", "area": "九龍", "district": "深水埗", "ob_name": "中國銀行(香港)有限公司", "addr": "港鐵深水埗站", "supp_tran": {"tran_name": ["現金提款, 轉賬, 結餘查詢, 更改私人密碼及其他基本服務", "強積金", "賬單繳費, 信用卡繳費, 慈善捐款", "PLUS", "JCB", "銀聯", "CIRRUS", "FISC"]}, "currencies": {"currency": ["港幣", "人民幣"]}, "latitude": "22.3309069", "longitude": "114.162224"}, {"@id": "35976", "region": "香港", "area": "九龍", "district": "深水埗", "ob_name": "中國銀行(香港)有限公司", "addr": "九龍李鄭屋邨商業中心108號", "supp_tran": {"tran_name": ["現金提款, 轉賬, 結餘查詢, 更改私人密碼及其他基本服務", "強積金", "賬單繳費, 信用卡繳費, 慈善捐款", "PLUS", "JCB", "銀聯", "CIRRUS", "FISC"]}, "currencies": {"currency": ["港幣", "人民幣"]}, "latitude": "22.338544964123006", "longitude": "114.15846347808838"}, {"@id": "41428", "region": "香港", "area": "九龍", "district": "深水埗", "ob_name": "中國銀行(香港)有限公司", "addr": "九龍深水長沙灣道194-196號", "supp_tran": {"tran_name": ["現金提款, 轉賬, 結餘查詢, 更改私人密碼及其他基本服務", "強積金", "賬單繳費, 信用卡繳費, 慈善捐款", "PLUS", "JCB", "銀聯", "CIRRUS", "FISC"]}, "currencies": {"currency": ["港幣", "人民幣"]}, "latitude": "22.3306173", "longitude": "114.162636"}, {"@id": "41429", "region": "香港", "area": "九龍", "district": "深水埗", "ob_name": "中國銀行(香港)有限公司", "addr": "九龍深水長沙灣道194-196號", "supp_tran": {"tran_name": ["現金提款, 轉賬, 結餘查詢, 更改私人密碼及其他基本服務", "強積金", "賬單繳費, 信用卡繳費, 慈善捐款", "PLUS", "JCB", "銀聯", "CIRRUS", "FISC"]}, "currencies": {"currency": "港幣"}, "latitude": "22.3306173", "longitude": "114.162636"}, {"@id": "44187", "region": "香港", "area": "九龍", "district": "深水埗", "ob_name": "中國銀行(香港)有限公司", "addr": "九龍深水埗西邨路富昌邨富昌商場地下 2 號 ATM", "supp_tran": {"tran_name": ["現金提款, 轉賬, 結餘查詢, 更改私人密碼及其他基本服務", "強積金", "賬單繳費, 信用卡繳費, 慈善捐款", "PLUS", "JCB", "銀聯", "CIRRUS", "FISC"]}, "currencies": {"currency": ["港幣", "人民幣"]}, "latitude": "22.32757390175835", "longitude": "114.15474593639374"}, {"@id": "46946", "region": "香港", "area": "九龍", "district": "深水埗", "ob_name": "中國銀行(香港)有限公司", "addr": "九龍深水埗南昌街207-211號", "supp_tran": {"tran_name": ["現金提款, 轉賬, 結餘查詢, 更改私人密碼及其他基本服務", "強積金", "賬單繳費, 信用卡繳費, 慈善捐款", "PLUS", "JCB", "銀聯", "CIRRUS", "FISC"]}, "currencies": {"currency": ["港幣", "人民幣"]}, "latitude": "22.3317282", "longitude": "114.1654848"}, {"@id": "46947", "region": "香港", "area": "九龍", "district": "深水埗", "ob_name": "中國銀行(香港)有限公司", "addr": "九龍深水埗南昌街207-211號", "supp_tran": {"tran_name": ["現金提款, 轉賬, 結餘查詢, 更改私人密碼及其他基本服務", "強積金", "賬單繳費, 信用卡繳費, 慈善捐款", "PLUS", "JCB", "銀聯", "CIRRUS", "FISC"]}, "currencies": {"currency": "港幣"}, "latitude": "22.3317282", "longitude": "114.1654848"}, {"@id": "1155", "region": "香港", "area": "九龍", "district": "深水埗", "ob_name": "中國銀行(香港)有限公司", "addr": "深水埗汝洲街42-46號", "supp_tran": {"tran_name": ["現金提款, 轉賬, 結餘查詢, 更改私人密碼及其他基本服務", "強積金", "賬單繳費, 信用卡繳費, 慈善捐款", "PLUS", "JCB", "銀聯", "CIRRUS", "FISC"]}, "currencies": {"currency": ["港幣", "人民幣"]}, "latitude": "22.326492131098462", "longitude": "114.16596829891205"}, {"@id": "1156", "region": "香港", "area": "九龍", "district": "深水埗", "ob_name": "中國銀行(香港)有限公司", "addr": "港鐵南昌站(西鐵線)", "supp_tran": {"tran_name": ["現金提款, 轉賬, 結餘查詢, 更改私人密碼及其他基本服務", "強積金", "賬單繳費, 信用卡繳費, 慈善捐款", "PLUS", "JCB", "銀聯", "CIRRUS", "FISC"]}, "currencies": {"currency": ["港幣", "人民幣"]}, "latitude": "22.326715433068482", "longitude": "114.15372133255005"}, {"@id": "1157", "region": "香港", "area": "九龍", "district": "深水埗", "ob_name": "中國銀行(香港)有限公司", "addr": "港鐵南昌站(西鐵線)", "supp_tran": {"tran_name": ["現金提款, 轉賬, 結餘查詢, 更改私人密碼及其他基本服務", "強積金", "賬單繳費, 信用卡繳費, 慈善捐款", "PLUS", "JCB", "銀聯", "CIRRUS", "FISC"]}, "currencies": {"currency": ["港幣", "人民幣"]}, "latitude": "22.3268116", "longitude": "114.1537198"}, {"@id": "209278", "region": "香港", "area": "九龍", "district": "深水埗", "ob_name": "中國銀行(香港)有限公司", "addr": "深水埗深旺道100號海麗商場1樓ATM位置", "supp_tran": {"tran_name": ["現金提款, 轉賬, 結餘查詢, 更改私人密碼及其他基本服務", "強積金", "賬單繳費, 信用卡繳費, 慈善捐款", "PLUS", "JCB", "銀聯", "CIRRUS", "FISC"]}, "currencies": {"currency": ["港幣", "人民幣"]}, "latitude": "22.332529280532377", "longitude": "114.1468526233482"}, {"@id": "222079", "region": "香港", "area": "九龍", "district": "深水埗", "ob_name": "中國銀行(香港)有限公司", "addr": "九龍深水埗永康街 111 號明愛醫院懷明樓3樓", "supp_tran": {"tran_name": ["現金提款, 轉賬, 結餘查詢, 更改私人密碼及其他基本服務", "強積金", "賬單繳費, 信用卡繳費, 慈善捐款", "PLUS", "JCB", "銀聯", "CIRRUS", "FISC"]}, "currencies": {"currency": ["港幣", "人民幣"]}, "latitude": "22.341474764871314", "longitude": "114.15345440898431"}, {"@id": "1158", "region": "香港", "area": "九龍", "district": "深水埗", "ob_name": "中國銀行(香港)有限公司", "addr": "港鐵深水埗站", "supp_tran": {"tran_name": ["現金提款, 轉賬, 結餘查詢, 更改私人密碼及其他基本服務", "強積金", "賬單繳費, 信用卡繳費, 慈善捐款", "PLUS", "JCB", "銀聯", "CIRRUS", "FISC"]}, "currencies": {"currency": ["港幣", "人民幣"]}, "latitude": "22.330863822445806", "longitude": "114.16224002838135"}, {"@id": "1143", "region": "香港", "area": "九龍", "district": "深水埗", "ob_name": "東亞銀行有限公司", "addr": "深水埗青山道305號地下1號", "supp_tran": {"tran_name": ["現金提款, 轉賬, 結餘查詢, 更改私人密碼及其他基本服務", "強積金", "跨行轉賬", "賬單繳費, 信用卡繳費, 慈善捐款", "PLUS", "JCB", "銀聯", "CIRRUS", "Diners Club", "FISC", "Discover"]}, "currencies": {"currency": "港幣"}, "latitude": "22.337924732596683", "longitude": "114.1568648815155"}, {"@id": "1171", "region": "香港", "area": "九龍", "district": "深水埗", "ob_name": "上海商業銀行", "addr": "深水埗長沙灣道141號", "supp_tran": {"tran_name": ["現金提款, 轉賬, 結餘查詢, 更改私人密碼及其他基本服務", "強積金", "跨行轉賬", "賬單繳費, 信用卡繳費, 慈善捐款", "PLUS", "JCB", "銀聯", "CIRRUS", "FISC"]}, "currencies": {"currency": ["港幣", "人民幣"]}, "latitude": "22.329223833973604", "longitude": "114.16401833295822"}]}}}