{"xml_msg": {"@query": "region=2,area=3,district=54,transaction=1", "supp_cb": null, "atms": {"atm": [{"@id": "1445", "region": "香港", "area": "新界", "district": "西貢", "ob_name": "渣打銀行(香港)有限公司", "addr": "新界西貢灣景街1-5號", "supp_tran": {"tran_name": ["現金提款, 轉賬, 結餘查詢, 更改私人密碼及其他基本服務", "賬單繳費, 信用卡繳費, 慈善捐款", "PLUS", "銀聯", "CIRRUS"]}, "currencies": {"currency": ["港幣", "人民幣"]}, "latitude": "22.381354114654524", "longitude": "114.27141666412354"}, {"@id": "1441", "region": "香港", "area": "新界", "district": "西貢", "ob_name": "中國銀行(香港)有限公司", "addr": "西貢清水灣道香港科技大學", "supp_tran": {"tran_name": ["現金提款, 轉賬, 結餘查詢, 更改私人密碼及其他基本服務", "強積金", "賬單繳費, 信用卡繳費, 慈善捐款", "PLUS", "JCB", "銀聯", "CIRRUS", "FISC"]}, "currencies": {"currency": ["港幣", "人民幣"]}, "latitude": "22.3373640409226", "longitude": "114.26373481750488"}, {"@id": "71750", "region": "香港", "area": "新界", "district": "西貢", "ob_name": "中國銀行(香港)有限公司", "addr": "新界西貢福民路22-40號西貢苑56及58號", "supp_tran": {"tran_name": ["現金提款, 轉賬, 結餘查詢, 更改私人密碼及其他基本服務", "強積金", "賬單繳費, 信用卡繳費, 慈善捐款", "PLUS", "JCB", "銀聯", "CIRRUS", "FISC"]}, "currencies": {"currency": ["港幣", "人民幣"]}, "latitude": "22.382678512831184", "longitude": "114.27162051200867"}, {"@id": "165183", "region": "香港", "area": "新界", "district": "西貢", "ob_name": "中國銀行(香港)有限公司", "addr": "新界清水灣道香港科技大學李兆基商學院大樓地下樓層", "supp_tran": {"tran_name": ["現金提款, 轉賬, 結餘查詢, 更改私人密碼及其他基本服務", "強積金", "賬單繳費, 信用卡繳費, 慈善捐款", "PLUS", "JCB", "銀聯", "CIRRUS", "FISC"]}, "currencies": {"currency": ["港幣", "人民幣"]}, "latitude": "22.333141762445443", "longitude": "114.26491489496766"}, {"@id": "1442", "region": "香港", "area": "新界", "district": "西貢", "ob_name": "中國銀行(香港)有限公司", "addr": "新界清水灣道香港科技大學學術廊入口", "supp_tran": {"tran_name": ["現金提款, 轉賬, 結餘查詢, 更改私人密碼及其他基本服務", "強積金", "賬單繳費, 信用卡繳費, 慈善捐款", "PLUS", "JCB", "銀聯", "CIRRUS", "FISC"]}, "currencies": {"currency": ["港幣", "人民幣"]}, "latitude": "22.33601440216152", "longitude": "114.2632520198822"}, {"@id": "1439", "region": "香港", "area": "新界", "district": "西貢", "ob_name": "東亞銀行有限公司", "addr": "西貢清水灣香港科技大學廣場入口地下", "supp_tran": {"tran_name": ["現金提款, 轉賬, 結餘查詢, 更改私人密碼及其他基本服務", "強積金", "跨行轉賬", "賬單繳費, 信用卡繳費, 慈善捐款", "PLUS", "JCB", "銀聯", "CIRRUS", "Diners Club", "FISC", "Discover"]}, "currencies": {"currency": "港幣"}, "latitude": "22.337324345851368", "longitude": "114.26328957080841"}, {"@id": "238432", "region": "香港", "area": "新界", "district": "西貢", "ob_name": "東亞銀行有限公司", "addr": "西貢清水灣香港科技大學廣場入口地下", "supp_tran": {"tran_name": ["現金提款, 轉賬, 結餘查詢, 更改私人密碼及其他基本服務", "強積金", "跨行轉賬", "賬單繳費, 信用卡繳費, 慈善捐款", "PLUS", "JCB", "銀聯", "CIRRUS", "Diners Club", "FISC", "Discover"]}, "currencies": {"currency": "港幣"}, "latitude": "22.337551", "longitude": "114.263008"}, {"@id": "1444", "region": "香港", "area": "新界", "district": "西貢", "ob_name": "大眾銀行(香港)有限公司", "addr": "新界西貢宜春街16號地下", "supp_tran": {"tran_name": ["現金提款, 轉賬, 結餘查詢, 更改私人密碼及其他基本服務", "強積金", "跨行轉賬", "賬單繳費, 信用卡繳費, 慈善捐款", "JCB", "銀聯"]}, "currencies": {"currency": ["港幣", "人民幣"]}, "latitude": "22.38151284468893", "longitude": "114.27130937576294"}]}}}