{"xml_msg": {"@query": "region=2,area=2,district=25,transaction=5", "supp_cb": null, "atms": {"atm": [{"@id": "911", "region": "香港", "area": "九龍", "district": "九龍灣", "ob_name": "渣打銀行(香港)有限公司", "addr": "九龍九龍灣大業街德福中心商場 P9-12 號", "supp_tran": {"tran_name": ["現金提款, 轉賬, 結餘查詢, 更改私人密碼及其他基本服務", "賬單繳費, 信用卡繳費, 慈善捐款", "PLUS", "銀聯", "CIRRUS"]}, "currencies": {"currency": ["港幣", "人民幣"]}, "latitude": "22.324105258825725", "longitude": "114.21343803405762"}, {"@id": "912", "region": "香港", "area": "九龍", "district": "九龍灣", "ob_name": "渣打銀行(香港)有限公司", "addr": "九龍九龍灣大業街德福中心商場 P9-12 號", "supp_tran": {"tran_name": ["現金提款, 轉賬, 結餘查詢, 更改私人密碼及其他基本服務", "賬單繳費, 信用卡繳費, 慈善捐款", "PLUS", "銀聯", "CIRRUS"]}, "currencies": {"currency": ["港幣", "人民幣"]}, "latitude": "22.324254129392177", "longitude": "114.2133092880249"}, {"@id": "14903", "region": "香港", "area": "九龍", "district": "九龍灣", "ob_name": "中國建設銀行(亞洲)股份有限公司", "addr": "[香港] 九龍九龍灣牛頭角道七十七號淘大花園IIA期地下181及190號舖", "supp_tran": {"tran_name": ["現金提款, 轉賬, 結餘查詢, 更改私人密碼及其他基本服務", "跨行轉賬", "賬單繳費, 信用卡繳費, 慈善捐款", "PLUS", "銀聯"]}, "currencies": {"currency": ["港幣", "人民幣"]}, "latitude": "22.3246044", "longitude": "114.2154608"}, {"@id": "14904", "region": "香港", "area": "九龍", "district": "九龍灣", "ob_name": "中國建設銀行(亞洲)股份有限公司", "addr": "[香港] 九龍九龍灣牛頭角道七十七號淘大花園IIA期地下181及190號舖", "supp_tran": {"tran_name": ["現金提款, 轉賬, 結餘查詢, 更改私人密碼及其他基本服務", "跨行轉賬", "賬單繳費, 信用卡繳費, 慈善捐款", "PLUS", "銀聯"]}, "currencies": {"currency": ["港幣", "人民幣"]}, "latitude": "22.3246044", "longitude": "114.2154608"}, {"@id": "107403", "region": "香港", "area": "九龍", "district": "九龍灣", "ob_name": "中國建設銀行(亞洲)股份有限公司", "addr": "九龍灣, 18號 宏照道, 中國建設銀行中心地下", "supp_tran": {"tran_name": ["現金提款, 轉賬, 結餘查詢, 更改私人密碼及其他基本服務", "跨行轉賬", "賬單繳費, 信用卡繳費, 慈善捐款", "PLUS", "銀聯"]}, "currencies": {"currency": ["港幣", "人民幣"]}, "latitude": "22.32415", "longitude": "114.208426"}, {"@id": "895", "region": "香港", "area": "九龍", "district": "九龍灣", "ob_name": "中國銀行(香港)有限公司", "addr": "九龍九龍灣宏開道16號德福大廈2號舖", "supp_tran": {"tran_name": ["現金提款, 轉賬, 結餘查詢, 更改私人密碼及其他基本服務", "強積金", "賬單繳費, 信用卡繳費, 慈善捐款", "PLUS", "JCB", "銀聯", "CIRRUS", "FISC"]}, "currencies": {"currency": ["港幣", "人民幣"]}, "latitude": "22.32285473979704", "longitude": "114.2109489440918"}, {"@id": "35980", "region": "香港", "area": "九龍", "district": "九龍灣", "ob_name": "中國銀行(香港)有限公司", "addr": "九龍九龍灣德褔花園商場P2號", "supp_tran": {"tran_name": ["現金提款, 轉賬, 結餘查詢, 更改私人密碼及其他基本服務", "強積金", "賬單繳費, 信用卡繳費, 慈善捐款", "PLUS", "JCB", "銀聯", "CIRRUS", "FISC"]}, "currencies": {"currency": "港幣"}, "latitude": "22.32396631282042", "longitude": "114.21343266963959"}, {"@id": "228558", "region": "香港", "area": "九龍", "district": "九龍灣", "ob_name": "中國銀行(香港)有限公司", "addr": "九龍灣臨華街1號九巴九龍灣車廠地下", "supp_tran": {"tran_name": ["現金提款, 轉賬, 結餘查詢, 更改私人密碼及其他基本服務", "強積金", "賬單繳費, 信用卡繳費, 慈善捐款", "PLUS", "JCB", "銀聯", "CIRRUS", "FISC"]}, "currencies": {"currency": ["港幣", "人民幣"]}, "latitude": "22.323436", "longitude": "114.207162"}, {"@id": "897", "region": "香港", "area": "九龍", "district": "九龍灣", "ob_name": "中國銀行(香港)有限公司", "addr": "九龍灣德褔花園商場P2號", "supp_tran": {"tran_name": ["現金提款, 轉賬, 結餘查詢, 更改私人密碼及其他基本服務", "強積金", "賬單繳費, 信用卡繳費, 慈善捐款", "PLUS", "JCB", "銀聯", "CIRRUS", "FISC"]}, "currencies": {"currency": ["港幣", "人民幣"]}, "latitude": "22.32453202069122", "longitude": "114.21332001686096"}, {"@id": "898", "region": "香港", "area": "九龍", "district": "九龍灣", "ob_name": "中國銀行(香港)有限公司", "addr": "九龍灣港鐵站", "supp_tran": {"tran_name": ["現金提款, 轉賬, 結餘查詢, 更改私人密碼及其他基本服務", "強積金", "PLUS", "JCB", "銀聯", "CIRRUS", "FISC"]}, "currencies": {"currency": ["港幣", "人民幣"]}, "latitude": "22.323430376932443", "longitude": "114.21395301818848"}, {"@id": "30584", "region": "香港", "area": "九龍", "district": "九龍灣", "ob_name": "東亞銀行有限公司", "addr": "九龍九龍灣德福廣場1期1樓F12B號", "supp_tran": {"tran_name": ["現金提款, 轉賬, 結餘查詢, 更改私人密碼及其他基本服務", "強積金", "跨行轉賬", "賬單繳費, 信用卡繳費, 慈善捐款", "PLUS", "JCB", "銀聯", "CIRRUS", "Diners Club", "FISC", "Discover"]}, "currencies": {"currency": ["港幣", "人民幣"]}, "latitude": "22.32380751721636", "longitude": "114.21382427215576"}, {"@id": "309237", "region": "香港", "area": "九龍", "district": "九龍灣", "ob_name": "東亞銀行有限公司", "addr": "九龍灣德福廣場1期1樓F12B號", "supp_tran": {"tran_name": ["現金提款, 轉賬, 結餘查詢, 更改私人密碼及其他基本服務", "強積金", "跨行轉賬", "賬單繳費, 信用卡繳費, 慈善捐款", "PLUS", "JCB", "銀聯", "CIRRUS", "FISC", "Diners Club", "Discover"]}, "currencies": {"currency": "港幣"}, "latitude": "22.323515", "longitude": "114.213274"}, {"@id": "25301", "region": "香港", "area": "九龍", "district": "九龍灣", "ob_name": "東亞銀行有限公司", "addr": "九龍灣德福廣場 1 期 1 樓自動櫃員機 3 號", "supp_tran": {"tran_name": ["現金提款, 轉賬, 結餘查詢, 更改私人密碼及其他基本服務", "強積金", "跨行轉賬", "賬單繳費, 信用卡繳費, 慈善捐款", "PLUS", "JCB", "銀聯", "CIRRUS", "Diners Club", "FISC", "Discover"]}, "currencies": {"currency": "港幣"}, "latitude": "22.32422435529159", "longitude": "114.21358823776245"}, {"@id": "2417", "region": "香港", "area": "九龍", "district": "九龍灣", "ob_name": "星展銀行(香港)有限公司", "addr": "九龍灣宏開道 8 號其士商業中心地下商場 6 號舖", "supp_tran": {"tran_name": ["現金提款, 轉賬, 結餘查詢, 更改私人密碼及其他基本服務", "賬單繳費, 信用卡繳費, 慈善捐款", "PLUS", "銀聯", "CIRRUS"]}, "currencies": {"currency": ["港幣", "人民幣"]}, "latitude": "22.321589", "longitude": "114.211174"}, {"@id": "899", "region": "香港", "area": "九龍", "district": "九龍灣", "ob_name": "中信銀行(國際)有限公司", "addr": "九龍灣宏開道8號其士商業中心地下商場7號", "supp_tran": {"tran_name": ["現金提款, 轉賬, 結餘查詢, 更改私人密碼及其他基本服務", "跨行轉賬", "賬單繳費, 信用卡繳費, 慈善捐款", "銀聯"]}, "currencies": {"currency": ["港幣", "人民幣"]}, "latitude": "22.321266762975046", "longitude": "114.21117424964905"}, {"@id": "913", "region": "香港", "area": "九龍", "district": "九龍灣", "ob_name": "招商永隆銀行有限公司", "addr": "九龍灣臨樂街19號南豐商業中心G2舖", "supp_tran": {"tran_name": ["現金提款, 轉賬, 結餘查詢, 更改私人密碼及其他基本服務", "強積金", "跨行轉賬", "賬單繳費, 信用卡繳費, 慈善捐款", "PLUS", "JCB", "銀聯", "CIRRUS"]}, "currencies": {"currency": ["港幣", "人民幣"]}, "latitude": "22.322537145878268", "longitude": "114.20784831047058"}, {"@id": "910", "region": "香港", "area": "九龍", "district": "九龍灣", "ob_name": "上海商業銀行", "addr": "九龍灣宏開道16號德福大廈", "supp_tran": {"tran_name": ["現金提款, 轉賬, 結餘查詢, 更改私人密碼及其他基本服務", "強積金", "跨行轉賬", "賬單繳費, 信用卡繳費, 慈善捐款", "PLUS", "JCB", "銀聯", "CIRRUS", "FISC"]}, "currencies": {"currency": ["港幣", "人民幣"]}, "latitude": "22.32245774728563", "longitude": "114.21103477478027"}, {"@id": "904", "region": "香港", "area": "九龍", "district": "九龍灣", "ob_name": "集友銀行有限公司", "addr": "九龍灣啟業邨啟樂樓10號地下", "supp_tran": {"tran_name": ["現金提款, 轉賬, 結餘查詢, 更改私人密碼及其他基本服務", "強積金", "跨行轉賬", "賬單繳費, 信用卡繳費, 慈善捐款", "PLUS", "JCB", "銀聯", "CIRRUS", "FISC"]}, "currencies": {"currency": ["港幣", "人民幣"]}, "latitude": "22.328204103734805", "longitude": "114.20955419540405"}, {"@id": "906", "region": "香港", "area": "九龍", "district": "九龍灣", "ob_name": "大新銀行有限公司", "addr": "九龍灣國際展貿中心地下陳列櫃01B", "supp_tran": {"tran_name": ["現金提款, 轉賬, 結餘查詢, 更改私人密碼及其他基本服務", "強積金", "跨行轉賬", "賬單繳費, 信用卡繳費, 慈善捐款", "PLUS", "銀聯", "CIRRUS"]}, "currencies": {"currency": "港幣"}, "latitude": "22.323777743020468", "longitude": "114.2035460472107"}, {"@id": "907", "region": "香港", "area": "九龍", "district": "九龍灣", "ob_name": "大新銀行有限公司", "addr": "九龍灣德福廣場一期二樓F5A-F6A號", "supp_tran": {"tran_name": ["現金提款, 轉賬, 結餘查詢, 更改私人密碼及其他基本服務", "強積金", "跨行轉賬", "賬單繳費, 信用卡繳費, 慈善捐款", "PLUS", "銀聯", "CIRRUS"]}, "currencies": {"currency": "港幣"}, "latitude": "22.323480000712244", "longitude": "114.21333074569702"}, {"@id": "900", "region": "香港", "area": "九龍", "district": "九龍灣", "ob_name": "創興銀行有限公司", "addr": "九龍灣宏開道8號其士商業中心地下8號舖", "supp_tran": {"tran_name": ["現金提款, 轉賬, 結餘查詢, 更改私人密碼及其他基本服務", "強積金", "跨行轉賬", "賬單繳費, 信用卡繳費, 慈善捐款", "銀聯"]}, "currencies": {"currency": "港幣"}, "latitude": "22.321440448820073", "longitude": "114.21112596988678"}, {"@id": "35987", "region": "香港", "area": "九龍", "district": "九龍灣", "ob_name": "中國工商銀行(亞洲)有限公司", "addr": "九龍九龍灣德福廣場P19-P20號舖", "supp_tran": {"tran_name": ["現金提款, 轉賬, 結餘查詢, 更改私人密碼及其他基本服務", "跨行轉賬", "賬單繳費, 信用卡繳費, 慈善捐款", "JCB", "銀聯", "CIRRUS"]}, "currencies": {"currency": ["港幣", "人民幣"]}, "latitude": "22.323167", "longitude": "114.213723"}, {"@id": "212454", "region": "香港", "area": "九龍", "district": "九龍灣", "ob_name": "中國工商銀行(亞洲)有限公司", "addr": "九龍九龍灣常悅道9號企業廣場一期1樓", "supp_tran": {"tran_name": ["現金提款, 轉賬, 結餘查詢, 更改私人密碼及其他基本服務", "跨行轉賬", "賬單繳費, 信用卡繳費, 慈善捐款", "JCB", "銀聯", "CIRRUS"]}, "currencies": {"currency": ["港幣", "人民幣"]}, "latitude": "22.3220575", "longitude": "114.20792140000003"}, {"@id": "908", "region": "香港", "area": "九龍", "district": "九龍灣", "ob_name": "富邦銀行(香港)有限公司", "addr": "九龍灣宏光道麗晶花園商場111-112 及 117-118 號", "supp_tran": {"tran_name": ["現金提款, 轉賬, 結餘查詢, 更改私人密碼及其他基本服務", "強積金", "跨行轉賬", "賬單繳費, 信用卡繳費, 慈善捐款", "PLUS", "銀聯", "CIRRUS"]}, "currencies": {"currency": ["港幣", "人民幣"]}, "latitude": "22.32963569370856", "longitude": "114.20588225126266"}, {"@id": "231819", "region": "香港", "area": "九龍", "district": "九龍灣", "ob_name": "花旗銀行(香港)有限公司", "addr": "九龍九龍灣海濱道83 號花旗大樓地下E1舖", "supp_tran": {"tran_name": ["現金提款, 轉賬, 結餘查詢, 更改私人密碼及其他基本服務", "賬單繳費, 信用卡繳費, 慈善捐款", "PLUS", "銀聯", "CIRRUS"]}, "currencies": {"currency": ["港幣", "人民幣"]}, "latitude": "22.315952", "longitude": "114.214386"}, {"@id": "901", "region": "香港", "area": "九龍", "district": "九龍灣", "ob_name": "花旗銀行(香港)有限公司", "addr": "九龍灣德福廣場店舖P4 & P6", "supp_tran": {"tran_name": ["現金提款, 轉賬, 結餘查詢, 更改私人密碼及其他基本服務", "賬單繳費, 信用卡繳費, 慈善捐款", "PLUS", "銀聯", "CIRRUS"]}, "currencies": {"currency": ["港幣", "人民幣"]}, "latitude": "22.3230963", "longitude": "114.2133226"}, {"@id": "77498", "region": "香港", "area": "九龍", "district": "九龍灣", "ob_name": "花旗銀行(香港)有限公司", "addr": "德福廣場店鋪Ｐ４及Ｐ６", "supp_tran": {"tran_name": ["現金提款, 轉賬, 結餘查詢, 更改私人密碼及其他基本服務", "賬單繳費, 信用卡繳費, 慈善捐款", "PLUS", "銀聯", "CIRRUS"]}, "currencies": {"currency": ["港幣", "人民幣"]}, "latitude": "22.321346162245312", "longitude": "114.21312153339386"}, {"@id": "255029", "region": "香港", "area": "九龍", "district": "九龍灣", "ob_name": "花旗銀行(香港)有限公司", "addr": "九龍九龍灣海濱道83號宏利大樓1樓", "supp_tran": {"tran_name": ["現金提款, 轉賬, 結餘查詢, 更改私人密碼及其他基本服務", "賬單繳費, 信用卡繳費, 慈善捐款", "PLUS", "銀聯", "CIRRUS"]}, "currencies": {"currency": ["港幣", "人民幣"]}, "latitude": "22.315882", "longitude": "114.214643"}, {"@id": "902", "region": "香港", "area": "九龍", "district": "九龍灣", "ob_name": "花旗銀行(香港)有限公司", "addr": "九龍灣宏照道33號國際交易中心地下11號舖", "supp_tran": {"tran_name": ["現金提款, 轉賬, 結餘查詢, 更改私人密碼及其他基本服務", "賬單繳費, 信用卡繳費, 慈善捐款", "PLUS", "銀聯", "CIRRUS"]}, "currencies": {"currency": ["港幣", "人民幣"]}, "latitude": "22.321093076913858", "longitude": "114.20923233032227"}, {"@id": "238404", "region": "香港", "area": "九龍", "district": "九龍灣", "ob_name": "花旗銀行(香港)有限公司", "addr": "九龍九龍灣海濱道83號花旗大樓5樓", "supp_tran": {"tran_name": ["現金提款, 轉賬, 結餘查詢, 更改私人密碼及其他基本服務", "賬單繳費, 信用卡繳費, 慈善捐款", "PLUS", "銀聯", "CIRRUS"]}, "currencies": {"currency": ["港幣", "人民幣"]}, "latitude": "22.315882", "longitude": "114.214428"}]}}}