{"xml_msg": {"@query": "region=2,area=2,district=28,transaction=2", "supp_cb": null, "atms": {"atm": [{"@id": "225327", "region": "香港", "area": "九龍", "district": "觀塘", "ob_name": "中國建設銀行(亞洲)股份有限公司", "addr": "56 開源道", "supp_tran": {"tran_name": ["現金提款, 轉賬, 結餘查詢, 更改私人密碼及其他基本服務", "跨行轉賬", "賬單繳費, 信用卡繳費, 慈善捐款", "銀聯", "CIRRUS"]}, "currencies": {"currency": ["港幣", "人民幣"]}, "latitude": "22.309901117193114", "longitude": "114.22421254047549"}, {"@id": "225328", "region": "香港", "area": "九龍", "district": "觀塘", "ob_name": "中國建設銀行(亞洲)股份有限公司", "addr": "56 開源道", "supp_tran": {"tran_name": ["現金提款, 轉賬, 結餘查詢, 更改私人密碼及其他基本服務", "跨行轉賬", "賬單繳費, 信用卡繳費, 慈善捐款", "銀聯", "CIRRUS"]}, "currencies": {"currency": ["港幣", "人民幣"]}, "latitude": "22.30992096863115", "longitude": "114.2242500914017"}, {"@id": "20065", "region": "香港", "area": "九龍", "district": "觀塘", "ob_name": "中國建設銀行(亞洲)股份有限公司", "addr": "觀塘協和街", "supp_tran": {"tran_name": ["現金提款, 轉賬, 結餘查詢, 更改私人密碼及其他基本服務", "跨行轉賬", "賬單繳費, 信用卡繳費, 慈善捐款"]}, "currencies": {"currency": ["港幣", "人民幣"]}, "latitude": "22.317180120789992", "longitude": "114.22659695148468"}, {"@id": "319765", "region": "香港", "area": "九龍", "district": "觀塘", "ob_name": "東亞銀行有限公司", "addr": "觀塘偉業街133號地下", "supp_tran": {"tran_name": ["現金提款, 轉賬, 結餘查詢, 更改私人密碼及其他基本服務", "強積金", "跨行轉賬", "賬單繳費, 信用卡繳費, 慈善捐款", "PLUS", "JCB", "銀聯", "CIRRUS", "FISC", "Diners Club", "Discover"]}, "currencies": {"currency": "港幣"}, "latitude": null, "longitude": null}, {"@id": "319764", "region": "香港", "area": "九龍", "district": "觀塘", "ob_name": "東亞銀行有限公司", "addr": "觀塘偉業街133號地下", "supp_tran": {"tran_name": ["現金提款, 轉賬, 結餘查詢, 更改私人密碼及其他基本服務", "強積金", "跨行轉賬", "賬單繳費, 信用卡繳費, 慈善捐款", "PLUS", "JCB", "銀聯", "CIRRUS", "FISC", "Diners Club", "Discover"]}, "currencies": {"currency": "港幣"}, "latitude": null, "longitude": null}, {"@id": "319778", "region": "香港", "area": "九龍", "district": "觀塘", "ob_name": "東亞銀行有限公司", "addr": "觀塘偉業街133號地下", "supp_tran": {"tran_name": ["現金提款, 轉賬, 結餘查詢, 更改私人密碼及其他基本服務", "強積金", "跨行轉賬", "賬單繳費, 信用卡繳費, 慈善捐款", "PLUS", "JCB", "銀聯", "CIRRUS", "FISC", "Diners Club", "Discover"]}, "currencies": {"currency": ["港幣", "人民幣"]}, "latitude": "22.3138996", "longitude": "114.21773439999993"}, {"@id": "940", "region": "香港", "area": "九龍", "district": "觀塘", "ob_name": "東亞銀行有限公司", "addr": "觀塘開源道54號豐利中心地下1號", "supp_tran": {"tran_name": ["現金提款, 轉賬, 結餘查詢, 更改私人密碼及其他基本服務", "強積金", "跨行轉賬", "賬單繳費, 信用卡繳費, 慈善捐款", "PLUS", "JCB", "銀聯", "CIRRUS", "Diners Club", "FISC", "Discover"]}, "currencies": {"currency": "港幣"}, "latitude": "22.309678947685207", "longitude": "114.22383159399033"}, {"@id": "134762", "region": "香港", "area": "九龍", "district": "觀塘", "ob_name": "東亞銀行有限公司", "addr": "觀塘開源道54號豐利中心地下1號", "supp_tran": {"tran_name": ["現金提款, 轉賬, 結餘查詢, 更改私人密碼及其他基本服務", "強積金", "跨行轉賬", "賬單繳費, 信用卡繳費, 慈善捐款", "PLUS", "JCB", "銀聯", "CIRRUS", "Diners Club", "FISC", "Discover"]}, "currencies": {"currency": "港幣"}, "latitude": "22.3095383", "longitude": "114.22409659999994"}, {"@id": "941", "region": "香港", "area": "九龍", "district": "觀塘", "ob_name": "東亞銀行有限公司", "addr": "觀塘麗港城商場地下38號", "supp_tran": {"tran_name": ["現金提款, 轉賬, 結餘查詢, 更改私人密碼及其他基本服務", "強積金", "跨行轉賬", "賬單繳費, 信用卡繳費, 慈善捐款", "PLUS", "JCB", "銀聯", "CIRRUS", "FISC", "Diners Club", "Discover"]}, "currencies": {"currency": "港幣"}, "latitude": "22.306904677050486", "longitude": "114.22813653945923"}, {"@id": "9800", "region": "香港", "area": "九龍", "district": "觀塘", "ob_name": "東亞銀行有限公司", "addr": "九龍觀塘麗港城商場地下38號", "supp_tran": {"tran_name": ["現金提款, 轉賬, 結餘查詢, 更改私人密碼及其他基本服務", "強積金", "跨行轉賬", "賬單繳費, 信用卡繳費, 慈善捐款", "PLUS", "JCB", "銀聯", "CIRRUS", "Diners Club", "FISC", "Discover"]}, "currencies": {"currency": ["港幣", "人民幣"]}, "latitude": "22.306942", "longitude": "114.228015"}, {"@id": "942", "region": "香港", "area": "九龍", "district": "觀塘", "ob_name": "東亞銀行有限公司", "addr": "觀塘觀塘道418號創紀之城五期地下1號", "supp_tran": {"tran_name": ["現金提款, 轉賬, 結餘查詢, 更改私人密碼及其他基本服務", "強積金", "跨行轉賬", "賬單繳費, 信用卡繳費, 慈善捐款", "PLUS", "JCB", "銀聯", "CIRRUS", "Diners Club", "FISC", "Discover"]}, "currencies": {"currency": ["港幣", "人民幣"]}, "latitude": "22.312527604718916", "longitude": "114.22519147396088"}, {"@id": "212471", "region": "香港", "area": "九龍", "district": "觀塘", "ob_name": "東亞銀行有限公司", "addr": "觀塘觀塘道418號創紀之城五期地下1號舖", "supp_tran": {"tran_name": ["現金提款, 轉賬, 結餘查詢, 更改私人密碼及其他基本服務", "強積金", "跨行轉賬", "賬單繳費, 信用卡繳費, 慈善捐款", "PLUS", "JCB", "銀聯", "CIRRUS", "Diners Club", "FISC", "Discover"]}, "currencies": {"currency": "港幣"}, "latitude": "22.3124200797347", "longitude": "114.22530676759788"}, {"@id": "212470", "region": "香港", "area": "九龍", "district": "觀塘", "ob_name": "東亞銀行有限公司", "addr": "觀塘觀塘道418號創紀之城五期地下1號舖", "supp_tran": {"tran_name": ["現金提款, 轉賬, 結餘查詢, 更改私人密碼及其他基本服務", "強積金", "跨行轉賬", "賬單繳費, 信用卡繳費, 慈善捐款", "PLUS", "JCB", "銀聯", "CIRRUS", "Diners Club", "FISC", "Discover"]}, "currencies": {"currency": "港幣"}, "latitude": "22.3124200797347", "longitude": "114.22522630132744"}, {"@id": "319777", "region": "香港", "area": "九龍", "district": "觀塘", "ob_name": "東亞銀行有限公司", "addr": "觀塘康寧道7號", "supp_tran": {"tran_name": ["現金提款, 轉賬, 結餘查詢, 更改私人密碼及其他基本服務", "強積金", "跨行轉賬", "賬單繳費, 信用卡繳費, 慈善捐款", "PLUS", "JCB", "銀聯", "CIRRUS", "FISC", "Diners Club", "Discover"]}, "currencies": {"currency": "港幣"}, "latitude": "22.3139672", "longitude": "114.22323749999998"}, {"@id": "68940", "region": "香港", "area": "九龍", "district": "觀塘", "ob_name": "東亞銀行有限公司", "addr": "九龍官塘秀明道101號秀茂坪商場2樓自動櫃員機 4號", "supp_tran": {"tran_name": ["現金提款, 轉賬, 結餘查詢, 更改私人密碼及其他基本服務", "強積金", "跨行轉賬", "賬單繳費, 信用卡繳費, 慈善捐款", "PLUS", "JCB", "銀聯", "CIRRUS", "Diners Club", "FISC", "Discover"]}, "currencies": {"currency": "港幣"}, "latitude": "22.319381017029574", "longitude": "114.23204183578491"}, {"@id": "71761", "region": "香港", "area": "九龍", "district": "觀塘", "ob_name": "東亞銀行有限公司", "addr": "九龍觀塘順利商場平台自動櫃員機 2號", "supp_tran": {"tran_name": ["現金提款, 轉賬, 結餘查詢, 更改私人密碼及其他基本服務", "強積金", "跨行轉賬", "賬單繳費, 信用卡繳費, 慈善捐款", "PLUS", "JCB", "銀聯", "CIRRUS", "Diners Club", "FISC", "Discover"]}, "currencies": {"currency": "港幣"}, "latitude": "22.331383", "longitude": "114.225617"}, {"@id": "943", "region": "香港", "area": "九龍", "district": "觀塘", "ob_name": "東亞銀行有限公司", "addr": "觀塘觀塘道418號創紀之城五期大堂高層UC-36舖對出", "supp_tran": {"tran_name": ["現金提款, 轉賬, 結餘查詢, 更改私人密碼及其他基本服務", "強積金", "跨行轉賬", "賬單繳費, 信用卡繳費, 慈善捐款", "PLUS", "JCB", "銀聯", "CIRRUS", "Diners Club", "FISC", "Discover"]}, "currencies": {"currency": "港幣"}, "latitude": "22.312468051508155", "longitude": "114.22518074512482"}, {"@id": "944", "region": "香港", "area": "九龍", "district": "觀塘", "ob_name": "東亞銀行有限公司", "addr": "觀塘觀塘道418號創紀之城五期大堂高層UC-36舖對出", "supp_tran": {"tran_name": ["現金提款, 轉賬, 結餘查詢, 更改私人密碼及其他基本服務", "強積金", "跨行轉賬", "賬單繳費, 信用卡繳費, 慈善捐款", "PLUS", "JCB", "銀聯", "CIRRUS", "Diners Club", "FISC", "Discover"]}, "currencies": {"currency": ["港幣", "人民幣"]}, "latitude": "22.312520160568955", "longitude": "114.22508150339127"}, {"@id": "945", "region": "香港", "area": "九龍", "district": "觀塘", "ob_name": "東亞銀行有限公司", "addr": "觀塘秀茂坪寶達邨商場地下9號舖對出自動扶手電梯下", "supp_tran": {"tran_name": ["現金提款, 轉賬, 結餘查詢, 更改私人密碼及其他基本服務", "強積金", "跨行轉賬", "賬單繳費, 信用卡繳費, 慈善捐款", "PLUS", "JCB", "銀聯", "CIRRUS", "Diners Club", "FISC", "Discover"]}, "currencies": {"currency": "港幣"}, "latitude": "22.317286816673054", "longitude": "114.23632800579071"}, {"@id": "946", "region": "香港", "area": "九龍", "district": "觀塘", "ob_name": "東亞銀行有限公司", "addr": "觀塘曉麗苑曉麗商場出入口對出近209A號舖", "supp_tran": {"tran_name": ["現金提款, 轉賬, 結餘查詢, 更改私人密碼及其他基本服務", "強積金", "跨行轉賬", "賬單繳費, 信用卡繳費, 慈善捐款", "PLUS", "JCB", "銀聯", "CIRRUS", "Diners Club", "FISC", "Discover"]}, "currencies": {"currency": "港幣"}, "latitude": "22.320671267008155", "longitude": "114.22946691513062"}, {"@id": "98215", "region": "香港", "area": "九龍", "district": "觀塘", "ob_name": "中信銀行(國際)有限公司", "addr": "九龍觀塘開源道 54 號豐利中心地下 3號", "supp_tran": {"tran_name": ["現金提款, 轉賬, 結餘查詢, 更改私人密碼及其他基本服務", "跨行轉賬", "賬單繳費, 信用卡繳費, 慈善捐款", "銀聯"]}, "currencies": {"currency": ["港幣", "人民幣"]}, "latitude": "22.309498", "longitude": "114.224017"}, {"@id": "98216", "region": "香港", "area": "九龍", "district": "觀塘", "ob_name": "中信銀行(國際)有限公司", "addr": "九龍觀塘開源道 54 號豐利中心地下 3號", "supp_tran": {"tran_name": ["現金提款, 轉賬, 結餘查詢, 更改私人密碼及其他基本服務", "跨行轉賬", "賬單繳費, 信用卡繳費, 慈善捐款", "銀聯"]}, "currencies": {"currency": ["港幣", "人民幣"]}, "latitude": "22.309498", "longitude": "114.224017"}, {"@id": "98217", "region": "香港", "area": "九龍", "district": "觀塘", "ob_name": "中信銀行(國際)有限公司", "addr": "九龍觀塘開源道 54 號豐利中心地下 3號", "supp_tran": {"tran_name": ["現金提款, 轉賬, 結餘查詢, 更改私人密碼及其他基本服務", "跨行轉賬", "賬單繳費, 信用卡繳費, 慈善捐款", "銀聯"]}, "currencies": {"currency": ["港幣", "人民幣"]}, "latitude": "22.309498", "longitude": "114.224017"}, {"@id": "998", "region": "香港", "area": "九龍", "district": "觀塘", "ob_name": "招商永隆銀行有限公司", "addr": "觀塘牛頭角道339號", "supp_tran": {"tran_name": ["現金提款, 轉賬, 結餘查詢, 更改私人密碼及其他基本服務", "強積金", "跨行轉賬", "賬單繳費, 信用卡繳費, 慈善捐款", "PLUS", "JCB", "銀聯", "CIRRUS"]}, "currencies": {"currency": ["港幣", "人民幣"]}, "latitude": "22.31479805193271", "longitude": "114.22258973121643"}, {"@id": "7324", "region": "香港", "area": "九龍", "district": "觀塘", "ob_name": "招商永隆銀行有限公司", "addr": "觀塘成業街7號寧晉中心東廣場1樓149號舖", "supp_tran": {"tran_name": ["現金提款, 轉賬, 結餘查詢, 更改私人密碼及其他基本服務", "強積金", "跨行轉賬", "賬單繳費, 信用卡繳費, 慈善捐款", "PLUS", "JCB", "銀聯", "CIRRUS"]}, "currencies": {"currency": ["港幣", "人民幣"]}, "latitude": "22.3109275", "longitude": "114.2258148"}, {"@id": "985", "region": "香港", "area": "九龍", "district": "觀塘", "ob_name": "上海商業銀行", "addr": "觀塘康寧道57-61號", "supp_tran": {"tran_name": ["現金提款, 轉賬, 結餘查詢, 更改私人密碼及其他基本服務", "強積金", "跨行轉賬", "賬單繳費, 信用卡繳費, 慈善捐款", "PLUS", "JCB", "銀聯", "CIRRUS", "FISC"]}, "currencies": {"currency": ["港幣", "人民幣"]}, "latitude": "22.31551267685804", "longitude": "114.22350972890854"}, {"@id": "938", "region": "香港", "area": "九龍", "district": "觀塘", "ob_name": "交通銀行股份有限公司", "addr": "九龍觀塘成業街16號怡生工業大廈地下G及H座E號舖", "supp_tran": {"tran_name": ["現金提款, 轉賬, 結餘查詢, 更改私人密碼及其他基本服務", "強積金", "跨行轉賬", "賬單繳費, 信用卡繳費, 慈善捐款", "PLUS", "銀聯", "CIRRUS"]}, "currencies": {"currency": ["港幣", "人民幣"]}, "latitude": "22.309824", "longitude": "114.225942"}, {"@id": "137825", "region": "香港", "area": "九龍", "district": "觀塘", "ob_name": "華僑永亨銀行有限公司", "addr": "觀塘輔仁街22至24號", "supp_tran": {"tran_name": ["現金提款, 轉賬, 結餘查詢, 更改私人密碼及其他基本服務", "強積金", "跨行轉賬", "賬單繳費, 信用卡繳費, 慈善捐款", "JCB", "銀聯"]}, "currencies": {"currency": "港幣"}, "latitude": "22.3155151", "longitude": "114.22408369999994"}, {"@id": "975", "region": "香港", "area": "九龍", "district": "觀塘", "ob_name": "大新銀行有限公司", "addr": "九龍觀塘成業街10號地下A舖", "supp_tran": {"tran_name": ["現金提款, 轉賬, 結餘查詢, 更改私人密碼及其他基本服務", "強積金", "跨行轉賬", "賬單繳費, 信用卡繳費, 慈善捐款", "PLUS", "銀聯", "CIRRUS"]}, "currencies": {"currency": "港幣"}, "latitude": "22.3106682", "longitude": "114.22600339999997"}, {"@id": "977", "region": "香港", "area": "九龍", "district": "觀塘", "ob_name": "大新銀行有限公司", "addr": "九龍觀塘康寧道45 號宜安中心地下７ -９號舖", "supp_tran": {"tran_name": ["現金提款, 轉賬, 結餘查詢, 更改私人密碼及其他基本服務", "強積金", "跨行轉賬", "賬單繳費, 信用卡繳費, 慈善捐款", "PLUS", "銀聯", "CIRRUS"]}, "currencies": {"currency": "港幣"}, "latitude": "22.31520747291042", "longitude": "114.22354727983475"}, {"@id": "963", "region": "香港", "area": "九龍", "district": "觀塘", "ob_name": "創興銀行有限公司", "addr": "觀塘物華街31至33號", "supp_tran": {"tran_name": ["現金提款, 轉賬, 結餘查詢, 更改私人密碼及其他基本服務", "強積金", "跨行轉賬", "賬單繳費, 信用卡繳費, 慈善捐款", "銀聯"]}, "currencies": {"currency": "港幣"}, "latitude": "22.315088368749837", "longitude": "114.22472208738327"}, {"@id": "964", "region": "香港", "area": "九龍", "district": "觀塘", "ob_name": "創興銀行有限公司", "addr": "觀塘巧明街114號", "supp_tran": {"tran_name": ["現金提款, 轉賬, 結餘查詢, 更改私人密碼及其他基本服務", "強積金", "跨行轉賬", "賬單繳費, 信用卡繳費, 慈善捐款", "銀聯"]}, "currencies": {"currency": "港幣"}, "latitude": "22.31129931460605", "longitude": "114.22442436218262"}, {"@id": "980", "region": "香港", "area": "九龍", "district": "觀塘", "ob_name": "中國工商銀行(亞洲)有限公司", "addr": "觀塘開源道79號鱷魚恤中心一樓5號和6號舖", "supp_tran": {"tran_name": ["現金提款, 轉賬, 結餘查詢, 更改私人密碼及其他基本服務", "跨行轉賬", "賬單繳費, 信用卡繳費, 慈善捐款", "JCB", "銀聯", "CIRRUS"]}, "currencies": {"currency": ["港幣", "人民幣"]}, "latitude": "22.311433310416213", "longitude": "114.2258432507515"}, {"@id": "981", "region": "香港", "area": "九龍", "district": "觀塘", "ob_name": "中國工商銀行(亞洲)有限公司", "addr": "觀塘開源道79號鱷魚恤中心一樓5號和6號舖", "supp_tran": {"tran_name": ["現金提款, 轉賬, 結餘查詢, 更改私人密碼及其他基本服務", "跨行轉賬", "賬單繳費, 信用卡繳費, 慈善捐款", "JCB", "銀聯", "CIRRUS"]}, "currencies": {"currency": ["港幣", "人民幣"]}, "latitude": "22.311420903402148", "longitude": "114.22582983970642"}, {"@id": "46958", "region": "香港", "area": "九龍", "district": "觀塘", "ob_name": "中國工商銀行(亞洲)有限公司", "addr": "九龍觀塘巧明街94-96號鴻圖中心地下ATM", "supp_tran": {"tran_name": ["現金提款, 轉賬, 結餘查詢, 更改私人密碼及其他基本服務", "跨行轉賬", "賬單繳費, 信用卡繳費, 慈善捐款", "JCB", "銀聯", "CIRRUS"]}, "currencies": {"currency": ["港幣", "人民幣"]}, "latitude": "22.312823", "longitude": "114.220369"}, {"@id": "271515", "region": "香港", "area": "九龍", "district": "觀塘", "ob_name": "中國工商銀行(亞洲)有限公司", "addr": "九龍觀塘駿業街58號宏開中心地下", "supp_tran": {"tran_name": ["現金提款, 轉賬, 結餘查詢, 更改私人密碼及其他基本服務", "跨行轉賬", "賬單繳費, 信用卡繳費, 慈善捐款", "JCB", "銀聯", "CIRRUS"]}, "currencies": {"currency": ["港幣", "人民幣"]}, "latitude": "22.3110748", "longitude": "114.22254309999994"}, {"@id": "98232", "region": "香港", "area": "九龍", "district": "觀塘", "ob_name": "中國工商銀行(亞洲)有限公司", "addr": "觀塘藍田碧雲道223號德田廣場1樓5號ATM", "supp_tran": {"tran_name": ["現金提款, 轉賬, 結餘查詢, 更改私人密碼及其他基本服務", "跨行轉賬", "賬單繳費, 信用卡繳費, 慈善捐款", "JCB", "銀聯", "CIRRUS"]}, "currencies": {"currency": ["港幣", "人民幣"]}, "latitude": "22.310903", "longitude": "114.238071"}, {"@id": "209283", "region": "香港", "area": "九龍", "district": "觀塘", "ob_name": "中國工商銀行(亞洲)有限公司", "addr": "香港九龍觀塘觀塘道388號創紀之城1期1座6樓", "supp_tran": {"tran_name": ["現金提款, 轉賬, 結餘查詢, 更改私人密碼及其他基本服務", "跨行轉賬", "賬單繳費, 信用卡繳費, 慈善捐款", "JCB", "銀聯", "CIRRUS"]}, "currencies": {"currency": ["港幣", "人民幣"]}, "latitude": "22.3136832", "longitude": "114.22124140000005"}]}}}