{"xml_msg": {"@query": "region=2,area=2,district=40,transaction=2", "supp_cb": null, "atms": {"atm": [{"@id": "1213", "region": "香港", "area": "九龍", "district": "土瓜灣", "ob_name": "招商永隆銀行有限公司", "addr": "土瓜灣土瓜灣道64號", "supp_tran": {"tran_name": ["現金提款, 轉賬, 結餘查詢, 更改私人密碼及其他基本服務", "強積金", "跨行轉賬", "賬單繳費, 信用卡繳費, 慈善捐款", "PLUS", "JCB", "銀聯", "CIRRUS"]}, "currencies": {"currency": ["港幣", "人民幣"]}, "latitude": "22.315659075262783", "longitude": "114.18887972831726"}, {"@id": "1210", "region": "香港", "area": "九龍", "district": "土瓜灣", "ob_name": "上海商業銀行", "addr": "土瓜灣土瓜灣道60號", "supp_tran": {"tran_name": ["現金提款, 轉賬, 結餘查詢, 更改私人密碼及其他基本服務", "強積金", "跨行轉賬", "賬單繳費, 信用卡繳費, 慈善捐款", "PLUS", "JCB", "銀聯", "CIRRUS", "FISC"]}, "currencies": {"currency": ["港幣", "人民幣"]}, "latitude": "22.315435755600813", "longitude": "114.18866246938705"}, {"@id": "1209", "region": "香港", "area": "九龍", "district": "土瓜灣", "ob_name": "大眾銀行(香港)有限公司", "addr": "九龍土瓜灣道237A號益豐大厦B座地下109號及120號舖", "supp_tran": {"tran_name": ["現金提款, 轉賬, 結餘查詢, 更改私人密碼及其他基本服務", "強積金", "跨行轉賬", "賬單繳費, 信用卡繳費, 慈善捐款", "JCB", "銀聯"]}, "currencies": {"currency": ["港幣", "人民幣"]}, "latitude": "22.31726944758138", "longitude": "114.19079214334488"}, {"@id": "89168", "region": "香港", "area": "九龍", "district": "土瓜灣", "ob_name": "華僑永亨銀行有限公司", "addr": "土瓜灣土瓜灣道237號A", "supp_tran": {"tran_name": ["現金提款, 轉賬, 結餘查詢, 更改私人密碼及其他基本服務", "強積金", "跨行轉賬", "賬單繳費, 信用卡繳費, 慈善捐款", "JCB", "銀聯"]}, "currencies": {"currency": "港幣"}, "latitude": "22.3153687", "longitude": "114.1889515"}, {"@id": "1206", "region": "香港", "area": "九龍", "district": "土瓜灣", "ob_name": "大新銀行有限公司", "addr": "九龍土瓜灣道245B及247號美景樓第2期地下", "supp_tran": {"tran_name": ["現金提款, 轉賬, 結餘查詢, 更改私人密碼及其他基本服務", "強積金", "跨行轉賬", "賬單繳費, 信用卡繳費, 慈善捐款", "PLUS", "銀聯", "CIRRUS"]}, "currencies": {"currency": "港幣"}, "latitude": "22.31531168896755", "longitude": "114.18890923261642"}, {"@id": "1204", "region": "香港", "area": "九龍", "district": "土瓜灣", "ob_name": "創興銀行有限公司", "addr": "土瓜灣譚公道34至34A號", "supp_tran": {"tran_name": ["現金提款, 轉賬, 結餘查詢, 更改私人密碼及其他基本服務", "強積金", "跨行轉賬", "賬單繳費, 信用卡繳費, 慈善捐款", "銀聯"]}, "currencies": {"currency": "港幣"}, "latitude": "22.32176300767305", "longitude": "114.18815016746521"}, {"@id": "1207", "region": "香港", "area": "九龍", "district": "土瓜灣", "ob_name": "中國工商銀行(亞洲)有限公司", "addr": "土瓜灣木廠街12-14號", "supp_tran": {"tran_name": ["現金提款, 轉賬, 結餘查詢, 更改私人密碼及其他基本服務", "跨行轉賬", "賬單繳費, 信用卡繳費, 慈善捐款", "JCB", "銀聯", "CIRRUS"]}, "currencies": {"currency": ["港幣", "人民幣"]}, "latitude": "22.32308549117527", "longitude": "114.18941617012024"}, {"@id": "231830", "region": "香港", "area": "九龍", "district": "土瓜灣", "ob_name": "中國工商銀行(亞洲)有限公司", "addr": "九龍土瓜灣馬頭角道33號欣榮花園商場地下", "supp_tran": {"tran_name": ["現金提款, 轉賬, 結餘查詢, 更改私人密碼及其他基本服務", "跨行轉賬", "賬單繳費, 信用卡繳費, 慈善捐款", "JCB", "銀聯", "CIRRUS"]}, "currencies": {"currency": ["港幣", "人民幣"]}, "latitude": "22.321924", "longitude": "114.189405"}]}}}