{"xml_msg": {"@query": "region=2,area=3,district=63,transaction=3", "supp_cb": null, "atms": {"atm": [{"@id": "1599", "region": "香港", "area": "新界", "district": "天水圍", "ob_name": "中國銀行(香港)有限公司", "addr": "新界元朗天水圍天恩路18號置富嘉湖第一期地下G64A號", "supp_tran": {"tran_name": ["現金提款, 轉賬, 結餘查詢, 更改私人密碼及其他基本服務", "強積金", "賬單繳費, 信用卡繳費, 慈善捐款", "PLUS", "JCB", "銀聯", "CIRRUS", "FISC"]}, "currencies": {"currency": ["港幣", "人民幣"]}, "latitude": "22.4572962", "longitude": "114.0043855"}, {"@id": "1600", "region": "香港", "area": "新界", "district": "天水圍", "ob_name": "中國銀行(香港)有限公司", "addr": "新界元朗天水圍天恩路18號置富嘉湖第一期地下G64A號", "supp_tran": {"tran_name": ["現金提款, 轉賬, 結餘查詢, 更改私人密碼及其他基本服務", "強積金", "賬單繳費, 信用卡繳費, 慈善捐款", "PLUS", "JCB", "銀聯", "CIRRUS", "FISC"]}, "currencies": {"currency": ["港幣", "人民幣"]}, "latitude": "22.45698331645474", "longitude": "114.00441884994507"}, {"@id": "1601", "region": "香港", "area": "新界", "district": "天水圍", "ob_name": "中國銀行(香港)有限公司", "addr": "新界元朗天水圍天恩路18號置富嘉湖第一期地下G64A號", "supp_tran": {"tran_name": ["現金提款, 轉賬, 結餘查詢, 更改私人密碼及其他基本服務", "強積金", "賬單繳費, 信用卡繳費, 慈善捐款", "PLUS", "JCB", "銀聯", "CIRRUS", "FISC"]}, "currencies": {"currency": "港幣"}, "latitude": "22.457022977376155", "longitude": "114.00413990020752"}, {"@id": "7314", "region": "香港", "area": "新界", "district": "天水圍", "ob_name": "中國銀行(香港)有限公司", "addr": "新界天水圍天晴村晴雲樓地下", "supp_tran": {"tran_name": ["現金提款, 轉賬, 結餘查詢, 更改私人密碼及其他基本服務", "強積金", "賬單繳費, 信用卡繳費, 慈善捐款", "PLUS", "JCB", "銀聯", "CIRRUS", "FISC"]}, "currencies": {"currency": ["港幣", "人民幣"]}, "latitude": "22.46286292418882", "longitude": "114.00336742401123"}, {"@id": "38689", "region": "香港", "area": "新界", "district": "天水圍", "ob_name": "中國銀行(香港)有限公司", "addr": "新界天水圍天瑞商場G30號", "supp_tran": {"tran_name": ["現金提款, 轉賬, 結餘查詢, 更改私人密碼及其他基本服務", "強積金", "賬單繳費, 信用卡繳費, 慈善捐款", "PLUS", "JCB", "銀聯", "CIRRUS", "FISC"]}, "currencies": {"currency": ["港幣", "人民幣"]}, "latitude": "22.45690399457784", "longitude": "113.99824976921082"}, {"@id": "38686", "region": "香港", "area": "新界", "district": "天水圍", "ob_name": "中國銀行(香港)有限公司", "addr": "新界天水圍天瑞商場G30號", "supp_tran": {"tran_name": ["現金提款, 轉賬, 結餘查詢, 更改私人密碼及其他基本服務", "強積金", "賬單繳費, 信用卡繳費, 慈善捐款", "PLUS", "JCB", "銀聯", "CIRRUS", "FISC"]}, "currencies": {"currency": "港幣"}, "latitude": "22.456819715033927", "longitude": "113.99842143058777"}, {"@id": "131680", "region": "香港", "area": "新界", "district": "天水圍", "ob_name": "中國銀行(香港)有限公司", "addr": "新界天水圍嘉湖山莊新北江商場A189號", "supp_tran": {"tran_name": ["現金提款, 轉賬, 結餘查詢, 更改私人密碼及其他基本服務", "強積金", "賬單繳費, 信用卡繳費, 慈善捐款", "PLUS", "JCB", "銀聯", "CIRRUS", "FISC"]}, "currencies": {"currency": ["港幣", "人民幣"]}, "latitude": "22.458301", "longitude": "113.999878"}, {"@id": "131679", "region": "香港", "area": "新界", "district": "天水圍", "ob_name": "中國銀行(香港)有限公司", "addr": "新界天水圍嘉湖山莊新北江商場A189號", "supp_tran": {"tran_name": ["現金提款, 轉賬, 結餘查詢, 更改私人密碼及其他基本服務", "強積金", "賬單繳費, 信用卡繳費, 慈善捐款", "PLUS", "JCB", "銀聯", "CIRRUS", "FISC"]}, "currencies": {"currency": "港幣"}, "latitude": "22.458301", "longitude": "113.999878"}, {"@id": "162117", "region": "香港", "area": "新界", "district": "天水圍", "ob_name": "中國銀行(香港)有限公司", "addr": "天水圍天瑞路Nos.71,73,75及77號天澤商場地下ATM No.6", "supp_tran": {"tran_name": ["現金提款, 轉賬, 結餘查詢, 更改私人密碼及其他基本服務", "強積金", "賬單繳費, 信用卡繳費, 慈善捐款", "PLUS", "JCB", "銀聯", "CIRRUS", "FISC"]}, "currencies": {"currency": ["港幣", "人民幣"]}, "latitude": "22.4682969", "longitude": "113.99881000000005"}, {"@id": "1602", "region": "香港", "area": "新界", "district": "天水圍", "ob_name": "中國銀行(香港)有限公司", "addr": "港鐵天水圍站", "supp_tran": {"tran_name": ["現金提款, 轉賬, 結餘查詢, 更改私人密碼及其他基本服務", "強積金", "賬單繳費, 信用卡繳費, 慈善捐款", "PLUS", "JCB", "銀聯", "CIRRUS", "FISC"]}, "currencies": {"currency": ["港幣", "人民幣"]}, "latitude": "22.44958139834024", "longitude": "114.00615155696869"}, {"@id": "1603", "region": "香港", "area": "新界", "district": "天水圍", "ob_name": "中國銀行(香港)有限公司", "addr": "港鐵天水圍站", "supp_tran": {"tran_name": ["現金提款, 轉賬, 結餘查詢, 更改私人密碼及其他基本服務", "強積金", "賬單繳費, 信用卡繳費, 慈善捐款", "PLUS", "JCB", "銀聯", "CIRRUS", "FISC"]}, "currencies": {"currency": ["港幣", "人民幣"]}, "latitude": "22.449576440459577", "longitude": "114.00615155696869"}, {"@id": "288377", "region": "香港", "area": "新界", "district": "天水圍", "ob_name": "東亞銀行有限公司", "addr": "天水圍嘉湖銀座第2期1樓103 及103A號舖", "supp_tran": {"tran_name": ["現金提款, 轉賬, 結餘查詢, 更改私人密碼及其他基本服務", "強積金", "跨行轉賬", "賬單繳費, 信用卡繳費, 慈善捐款", "PLUS", "JCB", "銀聯", "CIRRUS", "FISC", "Diners Club", "Discover"]}, "currencies": {"currency": ["港幣", "人民幣"]}, "latitude": "22.4569941", "longitude": "114.00468920000003"}, {"@id": "288376", "region": "香港", "area": "新界", "district": "天水圍", "ob_name": "東亞銀行有限公司", "addr": "天水圍嘉湖銀座第2期1樓103 及103A號舖", "supp_tran": {"tran_name": ["現金提款, 轉賬, 結餘查詢, 更改私人密碼及其他基本服務", "強積金", "跨行轉賬", "賬單繳費, 信用卡繳費, 慈善捐款", "PLUS", "JCB", "銀聯", "CIRRUS", "FISC", "Diners Club", "Discover"]}, "currencies": {"currency": "港幣"}, "latitude": "22.4569941", "longitude": "114.00468920000003"}, {"@id": "251739", "region": "香港", "area": "新界", "district": "天水圍", "ob_name": "東亞銀行有限公司", "addr": "新界天水圍天秀路8號天一商城1樓1095-1096號鋪", "supp_tran": {"tran_name": ["現金提款, 轉賬, 結餘查詢, 更改私人密碼及其他基本服務", "強積金", "跨行轉賬", "賬單繳費, 信用卡繳費, 慈善捐款", "PLUS", "JCB", "銀聯", "CIRRUS", "Diners Club", "FISC", "Discover"]}, "currencies": {"currency": ["港幣", "人民幣"]}, "latitude": "22.465507", "longitude": "113.998918"}, {"@id": "251738", "region": "香港", "area": "新界", "district": "天水圍", "ob_name": "東亞銀行有限公司", "addr": "新界天水圍天秀路8號天一商城1樓1095-1096號鋪", "supp_tran": {"tran_name": ["現金提款, 轉賬, 結餘查詢, 更改私人密碼及其他基本服務", "強積金", "跨行轉賬", "賬單繳費, 信用卡繳費, 慈善捐款", "PLUS", "JCB", "銀聯", "CIRRUS", "Diners Club", "FISC", "Discover"]}, "currencies": {"currency": "港幣"}, "latitude": "22.465507", "longitude": "113.998918"}, {"@id": "113549", "region": "香港", "area": "新界", "district": "天水圍", "ob_name": "東亞銀行有限公司", "addr": "新界天水圍天湖路2號天耀廣場地下自動櫃員機1號", "supp_tran": {"tran_name": ["現金提款, 轉賬, 結餘查詢, 更改私人密碼及其他基本服務", "強積金", "跨行轉賬", "賬單繳費, 信用卡繳費, 慈善捐款", "PLUS", "JCB", "銀聯", "CIRRUS", "Diners Club", "FISC", "Discover"]}, "currencies": {"currency": "港幣"}, "latitude": "22.451886793641232", "longitude": "114.001345038414"}, {"@id": "1596", "region": "香港", "area": "新界", "district": "天水圍", "ob_name": "東亞銀行有限公司", "addr": "天水圍天澤商場地下5號舖對出位置﹝扶手電梯側﹞", "supp_tran": {"tran_name": ["現金提款, 轉賬, 結餘查詢, 更改私人密碼及其他基本服務", "強積金", "跨行轉賬", "賬單繳費, 信用卡繳費, 慈善捐款", "PLUS", "JCB", "銀聯", "CIRRUS", "Diners Club", "FISC", "Discover"]}, "currencies": {"currency": "港幣"}, "latitude": "22.46826639091367", "longitude": "113.99874866008759"}, {"@id": "1597", "region": "香港", "area": "新界", "district": "天水圍", "ob_name": "東亞銀行有限公司", "addr": "天水圍天澤商場地下5號舖對出位置﹝扶手電梯側﹞", "supp_tran": {"tran_name": ["現金提款, 轉賬, 結餘查詢, 更改私人密碼及其他基本服務", "強積金", "跨行轉賬", "賬單繳費, 信用卡繳費, 慈善捐款", "PLUS", "JCB", "銀聯", "CIRRUS", "Diners Club", "FISC", "Discover"]}, "currencies": {"currency": "港幣"}, "latitude": "22.4682969", "longitude": "113.99881"}, {"@id": "264895", "region": "香港", "area": "新界", "district": "天水圍", "ob_name": "招商永隆銀行有限公司", "addr": "天水圍天秀路8號天一商城1樓1038號舖", "supp_tran": {"tran_name": ["現金提款, 轉賬, 結餘查詢, 更改私人密碼及其他基本服務", "強積金", "跨行轉賬", "賬單繳費, 信用卡繳費, 慈善捐款", "PLUS", "JCB", "銀聯", "CIRRUS"]}, "currencies": {"currency": ["港幣", "人民幣"]}, "latitude": "22.464733", "longitude": "114.003101"}, {"@id": "1607", "region": "香港", "area": "新界", "district": "天水圍", "ob_name": "上海商業銀行", "addr": "天水圍天恩路18號嘉湖銀座第二期地下G8號舖", "supp_tran": {"tran_name": ["現金提款, 轉賬, 結餘查詢, 更改私人密碼及其他基本服務", "強積金", "跨行轉賬", "賬單繳費, 信用卡繳費, 慈善捐款", "PLUS", "JCB", "銀聯", "CIRRUS", "FISC"]}, "currencies": {"currency": "港幣"}, "latitude": "22.456869291242437", "longitude": "114.00500893592834"}, {"@id": "174516", "region": "香港", "area": "新界", "district": "天水圍", "ob_name": "上海商業銀行", "addr": "天水圍天恩路18號嘉湖銀座第二期地下G8號舖", "supp_tran": {"tran_name": ["現金提款, 轉賬, 結餘查詢, 更改私人密碼及其他基本服務", "強積金", "跨行轉賬", "賬單繳費, 信用卡繳費, 慈善捐款", "PLUS", "JCB", "銀聯", "CIRRUS", "FISC"]}, "currencies": {"currency": ["港幣", "人民幣"]}, "latitude": "22.457743884379358", "longitude": "114.00334743320468"}, {"@id": "1592", "region": "香港", "area": "新界", "district": "天水圍", "ob_name": "交通銀行股份有限公司", "addr": "新界天水圍天恩路12至18號置富嘉湖二期1樓106A, 106B1, 106C, 107舖", "supp_tran": {"tran_name": ["現金提款, 轉賬, 結餘查詢, 更改私人密碼及其他基本服務", "強積金", "跨行轉賬", "賬單繳費, 信用卡繳費, 慈善捐款", "PLUS", "銀聯", "CIRRUS"]}, "currencies": {"currency": ["港幣", "人民幣"]}, "latitude": "22.456944", "longitude": "114.005157"}, {"@id": "1606", "region": "香港", "area": "新界", "district": "天水圍", "ob_name": "大新銀行有限公司", "addr": "新界元朗天水圍天靖街3號天盛苑天盛商場1樓L120號舖", "supp_tran": {"tran_name": ["現金提款, 轉賬, 結餘查詢, 更改私人密碼及其他基本服務", "強積金", "跨行轉賬", "賬單繳費, 信用卡繳費, 慈善捐款", "PLUS", "銀聯", "CIRRUS"]}, "currencies": {"currency": "港幣"}, "latitude": "22.44909532619486", "longitude": "114.0027180615158"}, {"@id": "2398", "region": "香港", "area": "新界", "district": "天水圍", "ob_name": "創興銀行有限公司", "addr": "新界天水圍置富嘉湖2期1樓103號", "supp_tran": {"tran_name": ["現金提款, 轉賬, 結餘查詢, 更改私人密碼及其他基本服務", "強積金", "跨行轉賬", "賬單繳費, 信用卡繳費, 慈善捐款", "銀聯"]}, "currencies": {"currency": "港幣"}, "latitude": "22.4572962", "longitude": "114.0043855"}, {"@id": "1605", "region": "香港", "area": "新界", "district": "天水圍", "ob_name": "創興銀行有限公司", "addr": "天水圍天澤邨天澤商場1樓112號舖", "supp_tran": {"tran_name": ["現金提款, 轉賬, 結餘查詢, 更改私人密碼及其他基本服務", "強積金", "跨行轉賬", "賬單繳費, 信用卡繳費, 慈善捐款", "銀聯"]}, "currencies": {"currency": "港幣"}, "latitude": "22.46828126254965", "longitude": "113.99868965148926"}, {"@id": "251732", "region": "香港", "area": "新界", "district": "天水圍", "ob_name": "創興銀行有限公司", "addr": "新界天水圍天瑞路71,73,75及77號天澤邨天澤商場2樓218號舖", "supp_tran": {"tran_name": ["現金提款, 轉賬, 結餘查詢, 更改私人密碼及其他基本服務", "強積金", "跨行轉賬", "賬單繳費, 信用卡繳費, 慈善捐款", "銀聯"]}, "currencies": {"currency": "港幣"}, "latitude": "22.468344", "longitude": "113.998600"}]}}}